Address,AreaName,Price ($),lat,lng,AreaCode
"7393 Wellington Rd 51 . Ariss, ON",Cobden,699000,43.596718,-80.34066,393
"152 MARR Drive Elora, ON",Penetanguishene,399900,43.693314,-80.437492,489
"17 Dan Sheehan Lane Clarington, ON",Thorncliffe Park,550000,43.931091,-78.707405,344
"328 Wicklow Beach Rd Alnwick Haldimand Township, ON",Flamborough,629000,43.976543,-77.962921,611
"WALKER LAKE DR WALKER LAKE DR Lake Of Bays, ON",Port Sydney,69900,45.378361,-79.092339,408
"PART LOT 29 CONCESSION 2 WGR West Grey, ON",Courtland,25900,44.156307,-80.846382,446
"473108 SOUTHGATE SIDEROAD 47 Southgate, ON",Southampton,289000,44.1567,-80.732941,457
"397 HALEY ROAD Renfrew, ON",Wynford-Concorde,24900,45.276588,-77.091713,364
"1733 ALSACE RD Nipissing, ON",Brantford,159900,46.024185,-79.497559,447
"50 PRICES POINT Road Huntsville, ON",Huntsville,450000,45.206451,-79.111061,409
"0 WINGFIELD Road Hastings, ON",Parkwood Gardens,28000,44.272854,-77.646339,512
"41742 HYDRO LINE RD Central Huron, ON",Elmwood,425000,43.59882,-81.435379,675
"31 CEDAR Street Augusta, ON",Lambton Shores,222500,44.649788,-75.618874,529
"N/A MONEYMORE RD N/A MONEYMORE RD Tweed, ON",Newton,148000,44.382591,-77.254784,505
"134 Hawkins Bay Lane Tweed, ON",Kimberley,139900,44.536251,-77.352135,488
"1311 COUNTY 2 ROAD Maitland, ON",Lambton Shores,975000,44.645828,-75.6007,529
"36 -38 D&#39;ARCY STREET Perth, ON",Ilderton,159900,43.416267,-81.033615,801
"17638 HIGHWAY 7 HIGHWAY Perth, ON",Markland Wood,259900,43.485992,-80.839714,208
"38 Cedar St Maitland, ON",Lambton Shores,306000,44.651829,-75.619156,529
"17912 B HIGHWAY 7 HIGHWAY Perth, ON",Markland Wood,79900,43.485992,-80.839714,208
"112 James St Village Of Tweed, ON",Tweed,125900,44.477924,-77.307663,477
"1311 COUNTY ROAD 2 MAITLAND, ON",Lambton Shores,975000,44.645828,-75.6007,529
"684 GOSPEL RD Stirling-Rawdon, ON",Donevan,219000,44.372665,-77.675331,759
"225 VICTORIA Street South Tweed, ON",Industrial Sector E and McAnulty,579900,44.470711,-77.308083,544
"55 Cedar St Maitland, ON",Westport,229900,44.654339,-75.622513,533
"14 CEDAR Street MAITLAND, ON",Lambton Shores,269888,44.647224,-75.615463,529
"1749 Wenona Lake Rd Haliburton, ON",Ryckmans,699000,45.036106,-78.347908,562
"LOT 60 West Shore Dr Haliburton, ON",Alpine,235000,45.184662,-78.627411,617
"5197 County Road 21 Haliburton, ON",Sandford,429000,45.047398,-78.530403,510
"1970 Glamour Lake Rd Haliburton, ON",Pickering,49000,44.9473,-78.350624,469
"North Kennisis Dr Haliburton, ON",Pioneer Tower East,239900,45.229679,-78.637543,610
"1032 Stratheden Dr Haliburton, ON",Sandford,479000,45.046715,-78.508492,510
"LOT 1 Briarwood Rd Haliburton, ON",Sandford,325000,45.046715,-78.508492,510
"1028 COULSON LANE Gooderham, ON",Chesley,349900,44.910374,-78.39032,458
"1033 Green Lake Rd Haliburton, ON",Welland,349000,45.11055,-78.637062,636
"1010 Leblanc Trail Haliburton, ON",Sandford,1140000,45.046715,-78.508492,510
"1336 Minnicock Lake Rd Haliburton, ON",Marlbank,199900,45.000217,-78.42054,483
"Hickory Glen Lane Haliburton, ON",Sandford,219000,45.046715,-78.508492,510
"1030 Kashagawigamog Lake Rd Haliburton, ON",Westcliffe East,53900,44.959446,-78.629738,637
"County Road 19 Haliburton, ON",Fort Erie,374900,45.075367,-78.471489,500
"152 MOUNTAIN Street Haliburton, ON",Beasley,475000,45.03363,-78.508858,572
"RIVER RD RIVER RD Magnetawan, ON",Fonthill,44900,45.681007,-79.616692,520
"39461 DASHWOOD RD|Unit 3 Exeter, ON",Brigadoon,67900,43.358021,-81.517776,603
"10 Bridgewater Rd Tweed, ON",Penetanguishene,174900,44.543209,-77.325615,489
"6745 Forestell Road Puslinch, ON",Rustic,1399000,43.47353,-80.252144,361
"6663 LAIRD Road W Puslinch, ON",Brookhaven,539900,43.480526,-80.270493,353
"6745 FORESTELL RD Puslinch, ON",Rustic,1399000,43.47353,-80.252144,361
"7256 Wellington Road 124 Rd Eramosa, ON",London,499900,43.494778,-80.285805,311
"772186 Highway 10 Southgate, ON",Sandford,599900,44.231911,-80.492615,510
"290 Concession 10 Kincardine, ON",Williamsville,289900,44.134346,-81.68322,670
"57 John St Harriston, ON",South River,139900,43.756516,-80.663208,444
"400 Crandall Rd Cramahe Twp., ON",West Flamborough,729000,44.043339,-77.847618,615
"68 Elgin St Cramahe Township, ON",Mount Hope,349900,44.01878,-77.88868,608
"296 Industrial Park Rd Haliburton, ON",Tory Hill,99000,45.052563,-78.538498,507
"12835 COUNTY 2 RD COLBORNE/CRAMAHE, ON",Rideau Heights,699900,44.009518,-77.896362,644
"YEARLEY RD YEARLEY RD Huntsville, ON",Huntsville,59900,45.367199,-79.442223,409
"752 MUSKOKA RD 3 Road North Huntsville, ON",Sheahan Estates - Trend Village - Arlington Woods,53900,45.227329,-79.459885,402
"5556 FIFTH LINE Eramosa, ON",The Elms,1950000,43.654797,-80.194977,326
"90 Waltonian Dr Callander, ON",Woodbridge,529900,46.201431,-79.500862,434
"96 NINOVAN Road East Callander, ON",North Bay,389900,46.197762,-79.450653,415
"450 PINECREEK Crescent Callander, ON",Petawawa,559900,46.192745,-79.390808,413
"285D Ruston Rd Nipissing, ON",Whitby,289900,46.144745,-79.531876,407
"1118 Hwy 654 Callander, ON",Chalk River,479900,46.184441,-79.42923,410
"320 OSPREY Crescent Callander, ON",Meaford,399000,46.230339,-79.384842,414
"169 GOLF COURSE Road Callander, ON",Meaford,344900,46.231781,-79.377693,414
"77 Rockview Rd Nipissing, ON",Eagle Lake,339900,46.158276,-79.545441,438
"1436 Main St Callander, ON",Meaford,642000,46.235012,-79.372398,414
"224 OSPREY Crescent Callander, ON",Meaford,439900,46.232361,-79.384789,414
"1 7TH Line Grey Highlands, ON",Napanee,69900,44.433628,-80.582893,297
"LOT 11 Smith Island Callander, ON",North Bay,99900,46.205574,-79.422836,415
"380 Waltonian Dr Callander, ON",Gooderham,189900,46.202747,-79.502403,435
"111 OSPREY Crescent Callander, ON",North Bay,449900,46.232975,-79.38131,415
"676 Tillicum Bay Rd Callander, ON",North Bay,864900,46.190727,-79.478897,415
"154 KILBY Lane Callander, ON",Meaford,309000,46.232857,-79.380531,414
"0 HILLSIDING Road Callander, ON",Riverside Park,330000,46.144997,-79.35936,382
"59 WOOKEY Road Callander, ON",Chalk River,484900,46.192989,-79.366898,410
"300 Greenwood Rd Callander, ON",Chalk River,479999,46.208141,-79.366982,410
"54 SUNSET COVE Road Callander, ON",Bluewater,269900,46.162106,-79.511848,417
"642 PINECREEK Road South Callander, ON",Whitby,274900,46.18198,-79.38942,407
"280 LANSDOWNE Street East Callander, ON",Chalk River,209000,46.223652,-79.361664,410
"1848 Blueberry Trail Haliburton, ON",Collingwood,899000,45.079929,-78.4049,465
"3191 Kashagawigamog Lake Rd Haliburton, ON",Haliburton,1490000,45.016968,-78.553093,511
"LOT 59 West Shore Rd Haliburton, ON",Alpine,269900,45.184662,-78.627411,617
"LOT 8 Misty Knoll Trail Haliburton, ON",Sandford,349000,45.046715,-78.508492,510
"5219 County Road 21 Haliburton, ON",Sandford,799000,45.047817,-78.528877,510
"304 Industrial Park Rd Haliburton, ON",Tory Hill,299900,45.052563,-78.538498,507
"1056 Argillite Rd Haliburton, ON",Sandford,690000,45.046715,-78.508492,510
"119 ST MICHAEL&#39;S Street Delhi, ON",Haliburton,393000,42.840225,-80.48243,511
"1362 Hutchings Rd Haliburton, ON",Goodwood,419000,45.010242,-78.488594,509
"1029 Honey Tree Lane Haliburton, ON",Sandford,328800,45.046715,-78.508492,510
"Trapline Trail Haliburton, ON",Rideau Heights,159000,45.150417,-78.626282,644
"3734 Harburn Rd Haliburton, ON",Fort Erie,1395000,45.073776,-78.475815,500
"5247 County Road 21 Haliburton, ON",Sandford,374900,45.04689,-78.527206,510
"1045 Propeller Dr Haliburton, ON",Sandford,399900,45.046715,-78.508492,510
"1117 NILA RD E Haliburton, ON",Pioneer Tower West,422900,45.117634,-78.592476,548
"536 Victoria St Tweed, ON",Stirling,119900,44.482437,-77.317535,480
"133 Bogart Rd Tweed, ON",Smiths Falls,259900,44.499405,-77.250893,495
"120 Pringle St Tweed, ON",Tweed,219900,44.4729,-77.310921,477
"113 River St Tweed, ON",Tweed,229900,44.475063,-77.308434,477
"161B St Edmunds Rd Tweed, ON",Annan,329900,44.454044,-77.286049,481
"B950 Concession 5 Rd Brock, ON",Brockley,225000,44.260147,-79.019363,641
"16 Albert St Hastings, ON",Millbrook,229900,44.310394,-77.959068,703
"56 Bridge St Hastings, ON",Cityview - Skyline - Fisher Heights,369900,44.305183,-77.954704,681
"861 Centre Line Selwyn, ON",Ridgetown,700000,44.377041,-78.324303,387
"41 Store St Tweed, ON",Penetanguishene,124900,44.543896,-77.327057,489
"31 Black River Rd Tweed, ON",Kimberley,169900,44.540081,-77.356064,488
"498 Metcalf St Tweed, ON",Owen Sound,159900,44.481083,-77.317322,482
"31 CEDAR STREET Maitland, ON",Lambton Shores,222500,44.649788,-75.618874,529
"113 Pomeroy Ave Tweed, ON",Tweed,244900,44.476471,-77.314659,477
"148 Skootamatta Lane Tweed, ON",Kimberley,262500,44.540394,-77.33065,488
"301 Victoria St Tweed, ON",Tweed,259900,44.477718,-77.313271,477
"386 Sunset Drive Kincardine, ON",Brechin,325000,44.382992,-81.522682,487
"1273 Quin-Mo-Lac Rd Tweed, ON",Kimberley,79900,44.479553,-77.389931,488
"360 Bridgewater Rd Tweed, ON",Brechin,379900,44.539192,-77.305466,487
"3 Colborne St Tweed, ON",Tweed,126900,44.475094,-77.309013,477
"684 Sulphide Rd Tweed, ON",Glendale,84900,44.497475,-77.281204,491
"5313 Highway 37 Tweed, ON",Stirling,269900,44.487209,-77.318764,480
"9 Front St Hastings, ON",Innisfil,329000,44.309395,-77.957245,695
"28 JACKSON Road Hastings, ON",Port McNicoll,249900,44.323673,-77.922173,707
"62 WOLF LAKE Road Madoc, ON",Industrial Sector D,175000,44.65033,-77.556076,564
"5 Harbour Ct Bayfield, ON",Christopher-Champlain,629000,43.570538,-81.706131,418
"1012 GUYS RD Bala, ON",Stinson,849000,45.041267,-79.606812,565
"20 DALTON Drive Kincardine, ON",West Humber Estates,128800,44.370102,-81.527946,783
"361 Shannon Bl Grand Bend, ON",Grange Park,229900,43.313683,-81.744354,539
"36259 HURON ST South Huron, ON",Kirkendall South,40000,43.319149,-81.711159,573
"52 Maplewood Crt Inverhuron, ON",Tiverton,64500,44.299377,-81.589584,740
"Moon Dr Haliburton, ON",Wallbridge,65000,45.046741,-78.559601,515
"7 MAPLE Grove Grand Bend, ON",Lambton Shores,1999999,43.316036,-81.75029,529
"36375 Huron St Grand Bend, ON",Kirkendall South,74900,43.319534,-81.708,573
"113 RICHARD DAVIES CRES Clarington, ON",Belleville,638000,43.935078,-78.712265,310
"1036 TINDALE RD Lake Of Bays, ON",Port Colborne,1299500,45.273632,-79.075294,439
"43 CANFIELD Street Gogama, ON",Shelburne,179900,47.672848,-81.717239,459
"39 John St Harriston, ON",Cookstown,155000,43.755657,-80.663902,442
"295 Highway 15 Leeds And 1000 Islands, ON",Old Malton Village,629000,44.486893,-76.193291,777
"#107 &amp;10- 370 HIGHWAY 7 E Richmond Hill, ON",Cummings,428888,43.166485,-81.35598,380
"#Ph 7 &amp;8- 330 HIGHWAY 7 E Richmond Hill, ON",Cummings,1388888,43.166485,-81.35598,380
"#222 &amp;53- 550 HIGHWAY 7 E Richmond Hill, ON",Cummings,449000,43.166485,-81.35598,380
"245 Carter Road Puslinch, ON",Victoria Village,1349900,43.541504,-80.191422,128
"843 WATSON RD Guelph, ON",East Danforth,1187500,43.536396,-80.167107,108
"245 Carter Rd Puslinch, ON",Victoria Village,1349900,43.541504,-80.191422,128
"6663 LAIRD RD Puslinch, ON",Brookhaven,539900,43.480526,-80.270493,353
"615A Burnt Hills Rd South Frontenac, ON",Tottenham,1199000,44.463486,-76.293953,700
"11 HICKORY Court Peterborough, ON",Lansdowne,449000,44.189384,-78.333084,443
"224 BORDEN Court London, ON",Black Creek,210000,42.875561,-81.094749,821
"11254 GOLDCREEK DR London, ON",Urbandale,1125000,43.01347,-81.409668,656
"* WOODVALE SCHOOL RD * WOODVALE SCHOOL RD Port Hope, ON",Welland,400000,44.078434,-78.348404,636
"473 Metcalf St Tweed, ON",Owen Sound,125900,44.480736,-77.31678,482
"64 Isaac St Tweed, ON",Tweed,249900,44.472336,-77.310539,477
"1231 Dardanelles Rd Haliburton, ON",Thomasburg,980000,45.087883,-78.417892,472
"8998 Regional Rd 23 Rd Uxbridge, ON",Brockville,789900,43.977314,-79.192047,506
"Tattersal Rd Haliburton, ON",Fort Erie,29900,45.06353,-78.470695,500
"31 Foliage Dr Tiny, ON",Lundy Village,445000,44.595306,-80.000946,858
"29 - 35791 BAYFIELD RIVER RD Central Huron, ON",Bluewater,102900,43.578011,-81.670914,417
"0 UNION Road Madoc, ON",Gores Landing,189000,44.591,-77.555084,547
"49 River Rd Leeds And 1000 Islands, ON",Carpenter,699000,44.349293,-76.093033,579
"66 Main St Dundalk, ON",Brockton Village,258500,44.169071,-80.392197,834
"7132 26 HW Clearview, ON",New Dundee,289900,44.385303,-80.095032,725
"27 Farm Lane Britt, ON",Zurich,799000,45.808498,-80.533997,749
"425 Robins Point Rd Victoria Harbour, ON",Central Frederick,379900,44.760262,-79.75827,612
"281 ROBINS POINT Road Victoria Harbour, ON",Industrial Sector C,99900,44.767281,-79.75695,624
"267 ROBINS POINT Road Victoria Harbour, ON",Industrial Sector C,199900,44.767544,-79.757133,624
"213029 BASELINE RD West Grey, ON",Sydenham,421900,44.227654,-80.867302,501
"290 Osprey Cres Callander, ON",Meaford,286900,46.230976,-79.384552,414
"137 Sandy Bay Rd Nipissing, ON",Rodney,879900,46.163731,-79.537743,427
"36 PARK Street Hastings, ON",Innisfil,175000,44.306171,-77.953278,695
"15166 Hwy 118 Haliburton, ON",Briar Hill,319000,45.032211,-78.444214,540
"1321 Slow Lane Haliburton, ON",Owen Sound,279900,45.000427,-78.408318,482
"PTLT- 64 LIGHTHOUSE Drive Dunnville, ON",Blakeley,58888,42.857811,-79.590019,626
"PTLT-65 LIGHTHOUSE Drive Dunnville, ON",Blakeley,65777,42.857864,-79.589684,626
"1231 CLEAR LAKE RD Minden, ON",Hanover,419900,44.804726,-78.755554,680
"108 KILLENBECK Lane Leeds And 1000 Islands, ON",Kinburn,274900,44.494862,-76.062843,647
"12944 ALBION VAUGHAN RD Caledon, ON",Junction Triangle,4400000,43.876427,-79.711952,324
"106 Weldrick Cres Clarington, ON",Lansdowne,500000,43.903282,-78.711937,443
"870 St. John&#39;s Road Port Dover, ON",Miller Lake,184900,42.811657,-80.210426,420
"26722 MARSH LN West Elgin, ON",Industrial Sector D,325000,42.616554,-81.56636,564
"83 PEDWELL POINT Drive Northern Bruce Peninsula, ON",Tobermory,54000,45.116287,-81.552193,920
"355905 The Blue Mountains-euphrasia Town Line Clarksburg, ON",Mechanicsville,1999000,44.447205,-80.48172,556
"60 UNION STREET Smiths Falls, ON",Smiths Falls,224900,44.914539,-76.023972,495
"195851 7 GREY RD EUPHRASIA, ON",Carpenter,427000,44.389336,-80.468216,579
"872 16TH Street West Georgian Bluffs, ON",Owen Sound,242000,44.579021,-80.966766,482
"0 11TH CONCESSION Road West Trent Hills, ON",Stevensville,35000,44.282715,-77.97229,502
"94 MAPLEDEAN Road Trent Hills, ON",Falkirk East,299900,44.232689,-77.995689,550
"54 QUEEN Street West Hastings, ON",Churchville,215000,44.302475,-77.957428,536
"15 DARNLEY Street Hastings, ON",Innisfil,255000,44.307838,-77.949791,695
"63 MCCANN Crescent Madoc, ON",Fiddlesticks,189900,44.595913,-77.524696,526
"10 Jowett`s Grove Rd Bayfield, ON",Bluewater,624900,43.570805,-81.704575,417
"16 DALTON Street Kincardine, ON",West Humber Estates,68800,44.369843,-81.528114,783
"34734 BAYFIELD RD Bayfield, ON",Magnetawan,799900,43.587009,-81.704308,449
"244146 SOUTHGATE 24 Southgate, ON",Unionville,699900,44.134529,-80.683426,424
"44262 12TH SIDEROAD West Grey, ON",Stirling,2690000,44.244633,-80.865234,480
"313197 HIGHWAY 6 West Grey, ON",Petawawa,369900,44.112759,-80.803459,413
"413294 BASELINE RD West Grey, ON",Miller Lake,499000,44.16251,-80.760544,420
"313009 HIGHWAY 6 Southgate, ON",Petawawa,139000,44.112759,-80.803459,413
"222 CONCESSION 2 ARRAN-ELDERSLIE, ON",Owen Sound,359500,44.291931,-81.17157,482
"266 FOYMOUNT ROAD Eganville, ON",Eganville,174900,45.529999,-77.104538,453
"36 PLEASANT VIEW DRIVE Renfrew, ON",Sundridge,139900,45.461781,-76.630508,516
"Pt Lt 1 Concession 13 Brock, ON",Bridgeport North,888888,44.357937,-79.185013,596
"313 FOYMOUNT ROAD Eganville, ON",Marlbank,289000,45.52726,-77.113762,483
"100 VAILE ROAD Greater Madawaska, ON",Haliburton,359800,45.426239,-76.671738,511
"1362 CONCESSION 9 Kincardine, ON",Wilberforce,639900,44.204144,-81.490822,696
"B121 Concession 14 Rd Brock, ON",Broughton East,689000,44.361778,-79.106529,571
"LOT 4 SCOTT&#39;S POINT RD Kincardine, ON",Eglinton West,69900,44.346466,-81.529556,836
"486 Park St Victoria Harbour, ON",Dundas,249900,44.745548,-79.759857,607
"101 Maskinonge Road Victoria Harbour, ON",Riverdale West,459900,44.736137,-79.747215,627
"75 JEPHSON Street Victoria Harbour, ON",Quinndale,224900,44.752476,-79.770195,622
"20 Lighthouse Cres Victoria Harbour, ON",Parkview West,619777,44.756874,-79.784752,629
"74 Robins Point Rd Victoria Harbour, ON",Carlisle,2400000,44.764282,-79.768623,616
"308 PARK Street North Victoria Harbour, ON",West Montrose,599000,44.751911,-79.766083,618
"2115 TINY BEACHES RD S Tiny, ON",Townsend,229900,44.577011,-79.991341,860
"1832 TINY BEACHES RD S Tiny, ON",Lundy Village,950000,44.591888,-79.999458,858
"22 SHEPPARD Drive Victoria Harbour, ON",Eastwood,331900,44.744446,-79.770645,613
"8 Concession Rd Trenthills, ON",Puslinch,325000,44.245819,-77.962524,590
"CANAL RD CANAL RD Trent Hills, ON",Fenelon Falls,70000,44.372326,-77.779282,754
"175 Robins Point Rd Victoria Harbour, ON",Central Frederick,219900,44.768787,-79.763107,612
"13451 REGIONAL RD 30 RD Uxbridge, ON",Brockville,2200000,43.977314,-79.192047,506
"490 Dawson Rd Cramahe Township, ON",Berczy Village,498000,44.143475,-77.954185,392
"16385 Redstone Lake Wao Haliburton, ON",Sandford,179000,45.046715,-78.508492,510
"0 Guigue Rd Central Frontenac, ON",Carleton Place,129000,44.77523,-76.641724,445
"24196 HIGHWAY 41 HIGHWAY Griffith, ON",Norwich,189900,45.243656,-77.188278,523
"1432 Shangrila Rd Haliburton, ON",Torwood Estates,299000,45.115284,-78.780998,665
"3217 Kashagawigamog Lake Rd Haliburton, ON",Delhi,619000,45.018066,-78.552658,513
"1082 Driftwood Bay Dr Haliburton, ON",Roblin,589000,44.97414,-78.357803,494
"West Settlement Rd Haliburton, ON",Thomasburg,209000,45.136909,-78.443626,472
"10971 LAKESHORE Road Wainfleet, ON",Port Colborne,399000,42.87495,-79.331741,439
"#A - 28 Industrial Rd Victoria Harbour, ON",Carlisle,900,44.75333,-79.765114,616
"7975 POPLAR SIDE RD Clearview, ON",Collingwood,1690000,44.475399,-80.229156,465
"66 Elizabeth St Victoria Harbour, ON",Quinndale,369900,44.752522,-79.76944,622
"2353 Roseville Road Roseville, ON",Aldershot,949000,43.349972,-80.425499,101
"14 CEDAR STREET Maitland, ON",Lambton Shores,269888,44.647224,-75.615463,529
"248 Victoria St Tweed, ON",Industrial Sector E and McAnulty,139900,44.469982,-77.30825,544
"0 Bridgewater Rd Tweed, ON",Penetanguishene,24900,44.543205,-77.325806,489
"210 Mary St Tweed, ON",Tweed,134900,44.477612,-77.310265,477
"88 COLLEGE Street Tweed, ON",Tweed,214900,44.475132,-77.319824,477
"23 Park St Hastings, ON",Innisfil,219900,44.306591,-77.954369,695
"0 Hwy 654 Callander, ON",Chalk River,50000,46.197613,-79.360336,410
"533 BRETT ST Shelburne, ON",Bethany,499900,44.090607,-80.214317,467
"Kennaway Rd Haliburton, ON",Waubaushene,175000,45.071922,-78.343826,474
"Loon Lake Rd Haliburton, ON",Marysville,29900,45.01693,-78.364006,493
"103 SPRUCE Street Tiny, ON",Lundy Village,649900,44.59407,-79.99057,858
"7 MOORE Avenue Tay, ON",Rolston,34500,44.742359,-79.752159,619
"33 28 HIGHWAY Denbigh, ON",Trenton,119500,45.137684,-77.296478,710
"1039 Mink Rd Haliburton, ON",Penetanguishene,389000,45.041267,-78.388748,489
"Fred Jones Rd Haliburton, ON",Sandford,254000,45.048584,-78.468636,510
"C19770 BROCK RD Brock, ON",Eastwood,1998000,44.305298,-79.155174,613
"Gelert Rd Haliburton, ON",Delhi,34900,45.023056,-78.535522,513
"152 PARK Road Tiny, ON",Townsend,495000,44.573841,-79.990547,860
"37 Museum Rd Haliburton, ON",Stevensville,651156,45.056175,-78.520638,502
"6420 MAYFIELD RD Caledon, ON",Regal Heights,1999999,43.796799,-79.753166,368
"1819 Airport Rd Clearview, ON",Bells Corners East,2199000,43.68663,-79.599464,228
"2154 Tiny Beaches Rd Tiny, ON",Townsend,989000,44.574722,-79.991867,860
"6025 VASEY RD Tay, ON",Hampton Heights,789000,44.64521,-79.813919,869
"#101 - 10 Winfield Dr Tay, ON",Riverdale West,94572,44.745033,-79.780876,627
"152 PARK RD Tiny, ON",Townsend,495000,44.573841,-79.990547,860
"7 Hickory Rd Tiny, ON",Lundy Village,399900,44.591675,-79.995819,858
"2092 Tiny Beaches Rd Tiny, ON",Townsend,879900,44.578743,-79.991112,860
"45 MAPLEWOOD Kincardine, ON",Ilderton,74700,44.317421,-81.586174,801
"35 Whitechurch St Whitechurch, ON",Hawkestone,18000,43.919907,-81.403648,684
"Mallard Rd Haliburton, ON",Sandford,1399000,45.048428,-78.536751,510
"Boughner Rd Haliburton, ON",Sydenham,45900,45.084507,-78.484268,501
"4th Conc Road Haliburton, ON",Sandford,550000,45.046715,-78.508492,510
"7256 Wellington Road 124 Road Guelph, ON",London,499900,43.494778,-80.285805,311
"7985 Tait`s Beach Rd Hamilton Township, ON",Richmond,599000,44.109016,-78.273743,650
"0 Cornish Hollow Rd Hamilton Township, ON",Butler,399500,44.02829,-78.198029,583
"86 Waterford Dr Toronto, ON",Richview,999888,43.679882,-79.544266,0
"#80 - 100 BEDDOE DR Hamilton, ON",Chedoke Park B,399900,43.25,-79.904396,1
"213 Bowman Street Hamilton, ON",Ainslie Wood East,479000,43.25169,-79.919357,2
"102 NEIL Avenue Hamilton, ON",Greenford,285900,43.227161,-79.767403,3
"#1409 - 230 King St Toronto, ON",Downtown,362000,43.651478,-79.368118,4
"254A Monarch Park Ave Toronto, ON",Old East York,1488000,43.686375,-79.328918,5
"532 Caledonia Rd Toronto, ON",Fairbank,25,43.691193,-79.461662,6
"11 REBECCA Street Hamilton, ON",Central Hamilton,254900,43.258541,-79.867615,7
"617 BRIGADOON Drive Hamilton, ON",Gourley,364900,43.216557,-79.904991,8
"51 - 255 MOUNT ALBION Road Hamilton, ON",Red Hill,304900,43.215706,-79.794189,9
"1170 LAMBTON Drive Oakville, ON",Clearview,1289000,43.495579,-79.658272,10
"47 Armstrong Ave Toronto, ON",Wallace Emerson,113,43.664101,-79.439751,11
"3 Bracebridge Ave Toronto, ON",Old East York,599900,43.697842,-79.317368,5
"#808 - 2167 Lake Shore Blvd Toronto, ON",Parkdale,97,43.635578,-79.441345,12
"#2706 - 2167 Lake Shore Blvd Toronto, ON",Parkdale,49,43.635578,-79.441345,12
"#710 - 1080 Bay St Toronto, ON",Downtown,805900,43.666794,-79.388756,4
"#A - 753 Shaw St Toronto, ON",Midtown Toronto,97,43.662872,-79.423233,13
"160 Jenkinson Way Toronto, ON",Dorset Park,549900,43.749599,-79.270844,14
"40 Hawthorne Rd Toronto, ON",Richview,850000,43.692314,-79.552635,0
"#4905 - 16 Harbour St Toronto, ON",Downtown,1348000,43.642578,-79.3769,4
"166 Mcnicoll Ave Toronto, ON",Hillcrest Village,129,43.79948,-79.357445,15
"430 Military Tr Toronto, ON",Morningside,675000,43.788639,-79.207932,16
"67 Montressor Dr Toronto, ON",St. Andrew - Windfields,113,43.759003,-79.392075,17
"46 Bruce Farm Dr Toronto, ON",Bayview Woods - Steeles,49,43.799358,-79.377914,18
"#1215 - 2627 Mccowan Rd Toronto, ON",Agincourt,49,43.807091,-79.265533,19
"247 Westmount Ave Toronto, ON",St. Clair West Village,25,43.68227,-79.44339,20
"31 Yorkshire Rd Toronto, ON",Ionview,499900,43.740097,-79.273987,21
"34 Ordway Rd Toronto, ON",Kennedy Park,599000,43.733814,-79.25,22
"47 Waterbeach Cres Toronto, ON",Rexdale,549900,43.726189,-79.582047,23
"2 Moraine Hill Dr Toronto, ON",Tam O'Shanter,698000,43.774624,-79.298141,24
"11 Mid Pines Rd Toronto, ON",Woburn,145,43.769413,-79.211456,25
"#1002 - 61 Richview Rd Toronto, ON",Humber Heights - Westmount,25,43.68417,-79.516685,26
"20 Shrewsbury Sq Toronto, ON",Tam O'Shanter - Sullivan,145,43.772118,-79.309311,27
"#18 - 170 Wickson Tr Toronto, ON",Malvern,338000,43.805099,-79.21196,28
"6 Willesden Rd Toronto, ON",Don Valley Village,699800,43.792187,-79.365669,29
"#2705 - 70 Temperance St Toronto, ON",Downtown,325000,43.650372,-79.382347,4
"37 Chapel Park Sq Toronto, ON",Milliken,25,43.821087,-79.314796,30
"49 Cadillac Ave Toronto, ON",Wilson Heights,1149000,43.734875,-79.441017,31
"#711 - 16 Harrison Garden Blvd Toronto, ON",Willowdale,25,43.757698,-79.409042,32
"#3711 - 11 Brunel Crt Toronto, ON",Downtown,97,43.6395,-79.393425,4
"4 Danube Dr Toronto, ON",Wexford - Maryvale,749900,43.742485,-79.296707,33
"#1209 - 35 Finch Ave Toronto, ON",Willowdale,419000,43.779987,-79.412735,32
"61 Mayland Tr Hamilton, ON",Hamilton,399900,43.19001,-79.774529,34
"48 Evans St Hamilton, ON",Central Hamilton,329000,43.25713,-79.855667,7
"397 East 21st St Hamilton, ON",Burkholme,345000,43.228962,-79.857834,35
"412 Wilson Ave Hamilton, ON",Central Hamilton,115000,43.254719,-79.851631,7
"312 WEXFORD AVE S Hamilton, ON",Delta East,449900,43.232216,-79.816681,36
"532 FERGUSON AVE N Hamilton, ON",North End East,229900,43.27071,-79.854385,37
"52 WILLIAM Street Hamilton, ON",Landsdale,249000,43.260704,-79.845901,38
"5 WEST - 174 MOUNTAIN PARK Avenue Hamilton, ON",East Hamilton,585000,43.242687,-79.852043,39
"374 BERKINDALE Drive Hamilton, ON",Riverdale East,399900,43.226192,-79.744423,40
"15 JOHN Street Hamilton, ON",Central Hamilton,0,43.25642,-79.86644,7
"50 ARMSTRONG Avenue Hamilton, ON",McQuesten West,239900,43.235504,-79.781685,41
"259 STRATHEARNE Avenue Hamilton, ON",Homeside,279000,43.244816,-79.797966,42
"210 1490 Bishops Gate Oakville, ON",Glen Abbey,399900,43.439903,-79.739502,43
"87 CHISHOLM ST Oakville, ON",Oakville,1249900,43.441227,-79.672119,44
"6 1267 Dorval Drive Oakville, ON",Oakville,988000,43.449455,-79.711067,44
"3153 OLD BRONTE RD N Oakville, ON",Oakville,1728888,43.439838,-79.781158,44
"121 ELTON PARK Road Oakville, ON",Oakville,3358000,43.45615,-79.658463,44
"144 Kerr Street Oakville, ON",Kerr Village,1125,43.440445,-79.676041,45
"2491 Hemmford Drive Oakville, ON",West Oak Trails,1150000,43.426399,-79.758904,46
"104 2338 Taunton Drive Oakville, ON",Uptown Core,438888,43.481838,-79.71537,47
"447 DRUMMOND Road Oakville, ON",Oakville,1799000,43.471046,-79.662132,44
"#427 - 2480 PRINCE MICHAEL DR Oakville, ON",Oakville,343500,43.497147,-79.707939,44
"493 DUNDAS ST Oakville, ON",Oakville,90000,43.466911,-79.745033,44
"3169 Trailside Drive Oakville, ON",Oakville,1599900,43.470753,-79.747871,44
"2482 Felhaber Crescent Oakville, ON",Oakville,899000,43.49506,-79.709579,44
"9 Struthers St Toronto, ON",Mimico,749000,43.609005,-79.496078,48
"1574 Pharmacy Ave Toronto, ON",Wexford - Maryvale,649900,43.763866,-79.312263,33
"26 Waterbury Dr Toronto, ON",Richview,595500,43.687061,-79.571083,0
"44 Dewlane Dr Toronto, ON",Newtonbrook,145,43.787003,-79.441383,49
"#3010 - 65 St  Mary St Toronto, ON",Downtown,312000,43.666897,-79.389038,4
"1 Silbury Dr Toronto, ON",Agincourt,709900,43.809811,-79.263359,19
"1465A Birchmount Rd Toronto, ON",Dorset Park,599900,43.755791,-79.28788,14
"85 Autumn Glen Circ Toronto, ON",Rexdale,25,43.733597,-79.608871,23
"143 Princess Margaret Blvd Toronto, ON",Princess Margaret,1049000,43.666405,-79.553543,50
"#9 - 42 Pinery Tr Toronto, ON",Malvern,105,43.807106,-79.227829,28
"175 Haddington Ave Toronto, ON",Nortown,2888000,43.733734,-79.425026,51
"## 911 - 5 Shady Gfwy Toronto, ON",Flemingdon Park,279900,43.717915,-79.326309,52
"#1805 - 16 Harrison Garden Blvd Toronto, ON",Willowdale,299900,43.757698,-79.409042,32
"68 Kenilworth Ave Toronto, ON",The Beach,1929000,43.668091,-79.301514,53
"#1505 - 125 Western Battery Rd Toronto, ON",Niagara,399900,43.639946,-79.416664,54
"110 Kirker Ave Toronto, ON",Woburn,25,43.759617,-79.206642,25
"138 Mckee Ave Toronto, ON",Willowdale,3988000,43.774734,-79.405685,32
"#2403 - 375 King St Toronto, ON",Downtown,548000,43.645641,-79.392952,4
"22 Strathearn Blvd Toronto, ON",Midtown Toronto,5288000,43.691135,-79.415573,13
"5051 Finch Ave Toronto, ON",Bridlewood,145,43.796768,-79.315636,55
"#406 - 300 Manitoba St Toronto, ON",Mimico,309000,43.62421,-79.489449,48
"#1901 - 231 Fort York Blvd Toronto, ON",Niagara,369000,43.636837,-79.406052,54
"#1010 - 65 East Liberty St Toronto, ON",Liberty Village,420000,43.638054,-79.414818,56
"#3706 - 15 Fort York Blvd Toronto, ON",Downtown,33,43.640057,-79.393967,4
"#203 - 17 Kenaston Gdns Toronto, ON",Bayview Village,429000,43.766094,-79.385582,57
"#502 - 2 Anndale Dr Toronto, ON",Willowdale,559000,43.760464,-79.410248,32
"1060 Midland Ave Toronto, ON",Bendale,699900,43.744205,-79.262428,58
"#701 - 3 Massey Sq Toronto, ON",Old East York,315000,43.696827,-79.293411,5
"#711 - 33 Singer Crt Toronto, ON",Bayview Village,428000,43.769611,-79.368416,57
"70 Dundalk Dr Toronto, ON",Dorset Park,113,43.769642,-79.286133,14
"#1127 - 5 Everson Dr Toronto, ON",Willowdale,348800,43.757408,-79.406853,32
"#1501 - 3050 Ellesmere Rd Toronto, ON",Morningside,209900,43.786037,-79.197723,16
"112 Helendale Ave Toronto, ON",Midtown Toronto,989000,43.708542,-79.402115,13
"#2004 - 21 Balmuto St Toronto, ON",Downtown,445900,43.669151,-79.387375,4
"#707 - 5 Rowntree Rd Toronto, ON",Rexdale,319901,43.74955,-79.58075,23
"255 Seaton St Toronto, ON",Downtown,25,43.660812,-79.370216,4
"45 Valhalla Blvd Toronto, ON",Birch Cliff,699000,43.688419,-79.267677,59
"#917 - 103 The Queensway Ave Toronto, ON",Swansea,25,43.636292,-79.470467,60
"#512 - 35 Bastion St Toronto, ON",Niagara,105,43.637207,-79.403572,54
"102 Mcgillivray Ave Toronto, ON",Nortown,1299900,43.736374,-79.430412,51
"1 Axsmith Cres Toronto, ON",Don Valley Village,41,43.78788,-79.351738,29
"#1912 - 62 Forest Manor Rd Toronto, ON",Henry Farm,325000,43.773922,-79.345726,61
"14 Rosemount Dr Toronto, ON",Ionview,25,43.732124,-79.275276,21
"9 Isaac Devins Blvd Toronto, ON",Humberlea,1049000,43.729229,-79.534203,62
"#2202 - 88 Grangeway Ave Toronto, ON",Woburn,25,43.773827,-79.250023,25
"#3601 - 2220 Lakeshore Blvd Toronto, ON",Mimico,320000,43.62273,-79.483192,48
"#320 - 18 William Carson Cres Toronto, ON",York Mills,145,43.749531,-79.407188,63
"#537 - 665 Kennedy Rd Toronto, ON",Scarborough Junction,179000,43.72599,-79.265015,64
"#2112 - 4968 Yonge St Toronto, ON",Lansing,113,43.765152,-79.412277,65
"#2709 - 70 Temperance St Toronto, ON",Downtown,459000,43.650372,-79.382347,4
"179 Carolbreen Sq Toronto, ON",Milliken,25,43.807594,-79.28289,30
"#2708 - 5168 Yonge St Toronto, ON",Willowdale,409900,43.769829,-79.413467,32
"#1003 - 763 Bay St Toronto, ON",Downtown,105,43.660103,-79.385086,4
"#1905 - 17 Anndale Dr Toronto, ON",Willowdale,580000,43.760136,-79.40789,32
"#303 - 5229 Dundas St Toronto, ON",Islington - City Centre West,33,43.639355,-79.536949,66
"#1509 - 88 Alton Towers Circ Toronto, ON",Toronto,25,43.824669,-79.274445,67
"#2002 - 2 Anndale Dr Toronto, ON",Willowdale,605900,43.760464,-79.410248,32
"#613 - 4064 Lawrence Ave Toronto, ON",West Hill,25,43.76638,-79.197601,68
"#901 - 2756 Old Leslie St Toronto, ON",Bayview Village,105,43.769722,-79.36692,57
"1571-73 Bayview Ave Toronto, ON",Leaside,25,43.7057,-79.374969,69
"#Main Fl - 454 Bloor St Toronto, ON",Midtown Toronto,49,43.66571,-79.409096,13
"#2016 - 155 Beecroft Rd Toronto, ON",Willowdale,469900,43.765537,-79.413155,32
"#403 - 35 Brian Peck Cres Toronto, ON",Leaside,25,43.714638,-79.35463,69
"#1016 - 35 Bales Ave Toronto, ON",Willowdale,515000,43.760181,-79.408218,32
"88 Twenty Sixth St Toronto, ON",Long Branch,25,43.600151,-79.526192,70
"#729 - 39 Queens Quay Way Toronto, ON",Downtown,438800,43.641346,-79.372421,4
"22 Norman Wesley Way Toronto, ON",Downsview,579999,43.743221,-79.488487,71
"25 Parkland Rd Toronto, ON",Birch Cliff,1790000,43.685295,-79.281013,59
"2 La Rush Dr Toronto, ON",Humber Heights - Westmount,25,43.691578,-79.516853,26
"30 Exeter St Toronto, ON",Carleton Village,699900,43.673656,-79.455894,72
"#305 - 9 Burnhamthorpe Cres Toronto, ON",Islington,598000,43.649681,-79.530716,73
"#Loft 2 - 2B Minto St Toronto, ON",Leslieville,1369900,43.663742,-79.324966,74
"#815 - 39 Queens Quay Way Toronto, ON",Downtown,33,43.641346,-79.372421,4
"#716 - 169 Fort York Blvd Toronto, ON",Niagara,25,43.638512,-79.400894,54
"#1605 - 61 Markbrook Lane Toronto, ON",Rexdale,254900,43.759262,-79.585342,23
"#1 - 105 Heath St Toronto, ON",Midtown Toronto,105,43.689011,-79.400002,13
"#514 - 210 Simcoe St Toronto, ON",Downtown,33,43.652451,-79.388931,4
"#724 - 2885 Bayview Ave Toronto, ON",Bayview Village,559999,43.767937,-79.387955,57
"#402 - 323 Richmond St Toronto, ON",Old Town,337000,43.653217,-79.368378,75
"90 Browning Ave Toronto, ON",Riverdale,1599000,43.682064,-79.353073,76
"#3307 - 21 Widmer St Toronto, ON",Downtown,438000,43.647224,-79.391098,4
"#1108 - 55 Bamburgh Circ Toronto, ON",Steeles,329900,43.814667,-79.326698,77
"42 Rovinelli Rd Toronto, ON",Malvern,849000,43.815105,-79.217415,28
"#907 - 5791 Yonge St Toronto, ON",Newtonbrook,389999,43.784409,-79.416061,49
"592 The Queensway Toronto, ON",The Queensway,699900,43.628426,-79.49398,78
"44 Barkwood Cres Toronto, ON",Hillcrest Village,17,43.805328,-79.355812,15
"#3006 - 121 Mcmahon Dr Toronto, ON",Bayview Village,25,43.767746,-79.370918,57
"#2604 - 1 King St Toronto, ON",Weston,319800,43.701572,-79.520187,79
"#713 - 15 Greenview Ave Toronto, ON",Newtonbrook,560000,43.78017,-79.418251,49
"#1711 - 45 Charles St Toronto, ON",Downtown,448888,43.668777,-79.383995,4
"#2011 - 215 Fort York Blvd Toronto, ON",Niagara,399000,43.636345,-79.404808,54
"#4004 - 21 Grenville St Toronto, ON",Downtown,704900,43.661793,-79.384506,4
"#1310 - 8 Mercer St Toronto, ON",Downtown,389000,43.645985,-79.389938,4
"#201 - 3 Pemberton Ave Toronto, ON",Newtonbrook,283000,43.780453,-79.413811,49
"#1103 - 3 Marine Parade Dr Toronto, ON",Mimico,579000,43.630383,-79.476273,48
"61 Boydwood Lane Toronto, ON",Rouge,3599000,43.806259,-79.158813,80
"75 Highland Cres Toronto, ON",York Mills,8995000,43.743626,-79.391846,63
"#816 - 210 Victoria St Toronto, ON",Downtown,329000,43.654648,-79.37925,4
"17 Tineta Cres Toronto, ON",White Haven,650000,43.786873,-79.256088,81
"#612 - 800 Lawrence Ave Toronto, ON",Lawrence Heights,359000,43.714592,-79.452911,82
"#5 - 1500 Bathurst St Toronto, ON",Casa Loma,35000,43.684158,-79.419075,83
"16 Stanley Avenue Kitchener, ON",Bridgeport East,289500,43.482586,-80.470451,84
"548 Pinnacle Drive Kitchener, ON",Doon South,749900,43.377377,-80.413368,85
"198 Newbury Drive Kitchener, ON",Forest Heights,279900,43.423267,-80.549805,86
"1110 Fairway Road Kitchener, ON",Grand River South,339500,43.44854,-80.402138,87
"468 Doon South Drive Kitchener, ON",Doon South,294900,43.378914,-80.432083,85
"202 Silver Aspen Crescent Kitchener, ON",Forest Heights,155000,43.423897,-80.525352,86
"205 Highland Crescent Kitchener, ON",Victoria Hills,239000,43.433254,-80.523178,88
"24 Mooregate Crescent Kitchener, ON",Victoria Hills,129900,43.439213,-80.523491,88
"92 Claycroft Crescent Kitchener, ON",Forest Heights,534888,43.423058,-80.536461,86
"84 Bagot St Guelph, ON",Onward Willow,319900,43.541809,-80.267944,89
"326 Cole Rd Guelph, ON",Hanlon Creek,313900,43.508049,-80.234413,90
"33 Old Colony Tr Guelph, ON",Guelph,564900,43.509789,-80.240356,91
"47 Edgehill Dr Guelph, ON",Exhibition Park,439900,43.552586,-80.270058,92
"150 Victoria Rd Guelph, ON",Guelph,1599905,43.563442,-80.240593,91
"183 ARTHUR ST N Guelph, ON",Waverley,329500,43.550434,-80.251793,93
"96 Silurian Drive Guelph, ON",Grange Hill East,387900,43.565311,-80.217117,94
"76 Washburn Drive Guelph, ON",Grange Hill East,339900,43.572025,-80.231163,94
"110 SIMMONDS Drive Guelph, ON",Waverley,499900,43.580765,-80.265869,93
"293 Paisley Road Guelph, ON",Onward Willow,339900,43.540306,-80.263855,89
"68 240 LONDON Road W Guelph, ON",Exhibition Park,329900,43.543354,-80.264183,92
"65 College Avenue W Guelph, ON",Old University,699000,43.529175,-80.237,95
"91 Conroy Crescent Guelph, ON",Guelph,129900,43.509037,-80.251648,91
"33 REID Court Guelph, ON",Hanlon Creek,309900,43.513775,-80.231232,90
"200 Woolwich Street Guelph, ON",Guelph,239900,43.548298,-80.253639,91
"41 1/2 Nottingham Street Guelph, ON",Old City,254900,43.540684,-80.248528,96
"215 Suffolk Street W Guelph, ON",Exhibition Park,359900,43.543663,-80.262383,92
"40 Silvercreek Parkway Guelph, ON",Onward Willow,216900,43.534996,-80.273621,89
"31 Schroder Crescent Guelph, ON",Grange Hill East,299900,43.558014,-80.227051,94
"92 Arthur Street Guelph, ON",Guelph,625000,43.548958,-80.24704,91
"107 Ferguson Street Guelph, ON",Two Rivers,287500,43.549145,-80.237419,97
"360 YORK RD Guelph, ON",Two Rivers,474999,43.548512,-80.22879,97
"113 49 RHONDA Road Guelph, ON",West Willow Woods,214900,43.53569,-80.279762,98
"66 June Avenue Guelph, ON",Guelph,360000,43.552708,-80.278244,91
"70 Downey Road Guelph, ON",Kortright Hills,849900,43.502979,-80.238884,99
"84 Bagot Street Guelph, ON",Onward Willow,319900,43.541809,-80.267944,89
"33 Old Colony Trail Guelph, ON",Guelph,564900,43.509789,-80.240356,91
"35 Kron Drive Guelph, ON",Hanlon Creek,489000,43.518448,-80.217987,90
"89 Davis Street Guelph, ON",Guelph,534900,43.58176,-80.222427,91
"194 Couling Crescent Guelph, ON",Guelph,409900,43.58168,-80.227325,91
"69 Regal Road Guelph, ON",Guelph,6,43.550182,-80.301346,91
"3537 RAVENSWOOD Court Burlington, ON",Burlington,795000,43.352207,-79.769684,100
"3311 HANNIBAL Road Burlington, ON",Burlington,449900,43.367554,-79.803764,100
"# 309 - 399 ELIZABETH ST Burlington, ON",Burlington,574900,43.325535,-79.794739,100
"6420 CHELSEA RD Burlington, ON",Burlington,1589000,43.422146,-79.928268,100
"1015 PLAINS VIEW Avenue Burlington, ON",Aldershot,499000,43.288479,-79.876991,101
"1421 WALKER&#39;S Line Burlington, ON",Burlington,374900,43.377296,-79.799942,100
"623 OXFORD Road Burlington, ON",Burlington,0,43.34333,-79.790581,100
"5134 Des Jardines Drive Burlington, ON",Burlington,590000,43.393284,-79.783401,100
"2416 Guildstone Cres Oakville, ON",West Oak Trails,788888,43.448833,-79.745132,46
"153 Dornie Rd Oakville, ON",Oakville,1699000,43.464684,-79.651291,44
"28 Sixteen Mile Dr Oakville, ON",Oakville,875000,43.474312,-79.740219,44
"1218 Lambeth Rd Oakville, ON",Oakville,938888,43.471313,-79.6875,44
"2230 Rochester Circ Oakville, ON",Palermo West,1298000,43.42421,-79.765709,102
"2172 Parkmount Blvd Oakville, ON",Oakville,1699000,43.49025,-79.696129,44
"2491 Hemmford Dr Oakville, ON",West Oak Trails,1150000,43.426399,-79.758904,46
"#15 - 1300 Hampton St Oakville, ON",Oakville,399900,43.475967,-79.687119,44
"2477 Old Bronte Rd Oakville, ON",West Oak Trails,1599000,43.434547,-79.77462,46
"#5 - 1212 Kirstie Crt Oakville, ON",Castle Green,495000,43.465286,-79.698013,103
"537 Weir Ave Oakville, ON",West Oakville,849000,43.428967,-79.700455,104
"#310 - 205 Lakeshore Rd Oakville, ON",Oakville,649000,43.436699,-79.678169,44
"1293 Devon Rd Oakville, ON",Oakville,2738000,43.468716,-79.659775,44
"16 Ennisclare Dr Oakville, ON",Oakville,6999999,43.461479,-79.646126,44
"#Ph2202 - 1359 White Oaks Blvd Oakville, ON",Oakville,629000,43.471966,-79.693459,44
"#522 - 2480 Prince Michael Dr Oakville, ON",Oakville,299900,43.497147,-79.707939,44
"#403 - 205 Lakeshore Rd Oakville, ON",Oakville,610000,43.436699,-79.678169,44
"202 - 2301 PARKHAVEN Boulevard Oakville, ON",Uptown Core,329900,43.476738,-79.71817,47
"1225 Lambeth Road Oakville, ON",Oakville,929900,43.471542,-79.686661,44
"#210 - 1490 BISHOPS GATE Oakville, ON",Glen Abbey,399900,43.439903,-79.739502,43
"208 RIVER OAKS BLVD E Oakville, ON",Oakville,1080000,43.474735,-79.710358,44
"2306 WHISTLING SPRINGS CRES Oakville, ON",West Oak Trails,799900,43.447029,-79.763397,46
"185 Robinson Street Oakville, ON",Oakville,475000,43.44503,-79.667793,44
"205 Lakeshore Road Oakville, ON",Oakville,610000,43.436699,-79.678169,44
"146 Wedgewood Drive Oakville, ON",Oakville,1849000,43.466675,-79.649033,44
"1359 White Oaks Boulevard Oakville, ON",Oakville,629000,43.471966,-79.693459,44
"109 BURLOAK Drive Oakville, ON",Bronte,1029000,43.37368,-79.726707,105
"2428 EIGHTH LINE Oakville, ON",Oakville,1199000,43.491077,-79.710068,44
"400 CARRIER Lane Oakville, ON",Oakville,889000,43.462559,-79.731163,44
"#61 - 2350 GRAND RAVINE DR Oakville, ON",Oakville,489900,43.475868,-79.721344,44
"1207 Wood Place Oakville, ON",West Oakville,910000,43.422874,-79.701424,104
"1 2480 Post Road Oakville, ON",Uptown Core,394900,43.47942,-79.727173,47
"385 Sandlewood Road Oakville, ON",West Oakville,2348000,43.409557,-79.712807,104
"2141 Galena Crescent Oakville, ON",Oakville,948000,43.486557,-79.696915,44
"3404 Kinglet Court Oakville, ON",Bronte,1498000,43.378624,-79.726967,105
"2147 NIGHTSTAR DR Oakville, ON",Westmount,739000,43.43993,-79.749199,106
"2486 OLD BRONTE Road Oakville, ON",West Oak Trails,0,43.434551,-79.774925,46
"316 Wendy Lane Oakville, ON",West Oakville,2300,43.419968,-79.697166,104
"280 Sarah Cline Drive Oakville, ON",Oakville,1950,43.474831,-79.738518,44
"179 Gatwick Drive Oakville, ON",Uptown Core,2350,43.478359,-79.716423,47
"153 Dornie Road Oakville, ON",Oakville,1699000,43.464684,-79.651291,44
"#525 - 380 MACPHERSON AVE Toronto, ON",Midtown Toronto,699000,43.676369,-79.405739,13
"#2704 - 103 THE QUEENSWAY WAY Toronto, ON",Swansea,789900,43.636292,-79.470467,60
"#725 - 10 CAPREOL CRT Toronto, ON",Downtown,379000,43.640224,-79.39595,4
"#2103 - 151 DAN LECKIE WAY Toronto, ON",Downtown,568000,43.639782,-79.397949,4
"1453 GERRARD ST E Toronto, ON",Leslieville,29900,43.672264,-79.321289,74
"#1407 - 914 YONGE ST Toronto, ON",Midtown Toronto,415000,43.674103,-79.388809,13
"77 MCGILL ST Toronto, ON",Downtown,1299000,43.6604,-79.379234,4
"#307 - 20 BLUE JAYS WAY Toronto, ON",Downtown,650000,43.643845,-79.391823,4
"#902 - 150 EAST LIBERTY ST Toronto, ON",Liberty Village,388000,43.638775,-79.41626,56
"#511 - 44 GERRARD ST W Toronto, ON",Downtown,375000,43.658798,-79.384392,4
"#Th6 - 6 PIRANDELLO ST Toronto, ON",King West Village,589900,43.63818,-79.413895,107
"48 BALMORAL AVE Toronto, ON",Midtown Toronto,1399000,43.68544,-79.395966,13
"148 BLYTHWOOD RD Toronto, ON",Midtown Toronto,2799000,43.717831,-79.395996,13
"#432 - 231 FORT YORK BLVD Toronto, ON",Niagara,450000,43.636837,-79.406052,54
"#N707 - 455 FRONT ST E Toronto, ON",Downtown,449900,43.652714,-79.3563,4
"#711 - 2055 DANFORTH AVE Toronto, ON",East Danforth,397500,43.685455,-79.313133,108
"712 BROCK AVE Toronto, ON",Wallace Emerson,939000,43.661915,-79.439941,11
"#319 - 900 MOUNT PLEASANT RD Toronto, ON",North Toronto,380000,43.711781,-79.39164,109
"#630 - 155 DALHOUSIE ST Toronto, ON",Downtown,565000,43.65765,-79.376762,4
"#915 - 50 WESTERN BATTERY RD Toronto, ON",Niagara,349000,43.639881,-79.414192,54
"1004 126 Simcoe Street Toronto, ON",Entertainment District,573000,43.649025,-79.387138,110
"#804 - 210 SIMCOE ST Toronto, ON",Downtown,589000,43.652451,-79.388931,4
"#202 - 8 MERCER ST Toronto, ON",Downtown,299000,43.645985,-79.389938,4
"#4001 - 38 GRENVILLE ST Toronto, ON",Downtown,599000,43.661896,-79.38575,4
"#411 - 10 YONGE ST Toronto, ON",Downtown,739900,43.642464,-79.375519,4
"#707 - 383 ELLIS PARK RD Toronto, ON",Swansea,1299900,43.652039,-79.470833,60
"#2111 - 290 ADELAIDE ST W Toronto, ON",Downtown,508000,43.647942,-79.390945,4
"#1807 - 58 ORCHARD VIEW BLVD Toronto, ON",Midtown Toronto,599000,43.708008,-79.400787,13
"4 A VIOLET AVE Toronto, ON",The Beach,2095000,43.668625,-79.296623,53
"#702 - 500 SHERBOURNE ST Toronto, ON",Downtown,375000,43.667915,-79.375679,4
"#2115 - 763 BAY ST Toronto, ON",Downtown,339000,43.660103,-79.385086,4
"#406 - 707 DOVERCOURT RD Toronto, ON",Dufferin Grove,379900,43.660225,-79.428726,111
"82 CHISHOLM AVE Toronto, ON",Woodbine - Lumsden,899900,43.690174,-79.304123,112
"#616 - 6 PARKWOOD AVE Toronto, ON",Midtown Toronto,579000,43.685623,-79.409592,13
"#414 - 22 LEADER LANE Toronto, ON",Downtown,579000,43.649246,-79.375755,4
"#525 - 36 BLUE JAYS WAY Toronto, ON",Downtown,359900,43.644932,-79.392143,4
"6 GROVE AVE Toronto, ON",Trinity - Bellwoods,919000,43.647694,-79.42276,113
"90 FAIRLEIGH CRES Toronto, ON",Midtown Toronto,1399000,43.70208,-79.437904,13
"295 Adelaide Street Toronto, ON",Downtown,1900,43.647663,-79.390419,4
"40 MALLON AVE W Toronto, ON",Leslieville,859000,43.665806,-79.334892,74
"#603 - 215 FORT YORK BLVD Toronto, ON",Niagara,289000,43.636345,-79.404808,54
"#810 - 51 LOWER SIMCOE ST Toronto, ON",Entertainment District,560000,43.642208,-79.383728,110
"#1231 - 38 GRAND MAGAZINE ST Toronto, ON",Niagara,309900,43.637035,-79.402863,54
"#407 - 105 THE QUEENSWAY AVE Toronto, ON",Swansea,269900,43.636173,-79.470757,60
"#2407 - 35 BALMUTO ST Toronto, ON",Downtown,425000,43.669456,-79.387474,4
"#609 - 222 THE ESPLANADE Toronto, ON",Downtown,395000,43.649731,-79.365303,4
"#2 B - 36 HAZELTON AVE Toronto, ON",Midtown Toronto,1399999,43.671864,-79.393814,13
"#1315 - 150 EAST LIBERTY ST Toronto, ON",Liberty Village,375000,43.638775,-79.41626,56
"#3614 - 18 YONGE ST Toronto, ON",Downtown,420000,43.644455,-79.376534,4
"#703 - 1166 BAY ST Toronto, ON",Downtown,1525000,43.668617,-79.389435,4
"#910 - 75 EAST LIBERTY ST Toronto, ON",Liberty Village,379900,43.638306,-79.414787,56
"#2111 - 170 FORT YORK BLVD Toronto, ON",Downtown,449900,43.639343,-79.399841,4
"#1203 - 159 DUNDAS ST E Toronto, ON",Downtown,374000,43.656807,-79.375092,4
"1315 DANFORTH RD Toronto, ON",Eglinton East,699900,43.742371,-79.245285,114
"#39 - 17 PEMBROKE ST Toronto, ON",Downtown,500000,43.656715,-79.371559,4
"#3010 - 2191 YONGE ST Toronto, ON",Davisville,415000,43.705597,-79.397453,115
"#728 - 2 OLD MILL DR Toronto, ON",Lambton Baby Point,404900,43.648071,-79.486664,116
"#211 - 2 OLD MILL DR Toronto, ON",Lambton Baby Point,514900,43.648071,-79.486664,116
"#902 - 2261 LAKE SHORE BLVD W Toronto, ON",Mimico,699995,43.62001,-79.483086,48
"#3005 - 2015 SHEPPARD AVE E Toronto, ON",Henry Farm,399000,43.775208,-79.336426,61
"#1606 - 19 SINGER CRT Toronto, ON",Bayview Village,349900,43.769569,-79.369514,57
"129 WATSON AVE Toronto, ON",Lambton,959000,43.664501,-79.492035,117
"154 DUNBLAINE AVE Toronto, ON",Nortown,2698000,43.734093,-79.42907,51
"24 CORONATION DR Toronto, ON",West Hill,669000,43.760899,-79.191841,68
"#210 - 165 CHEROKEE BLVD Toronto, ON",Pleasant View,385000,43.792374,-79.336693,118
"#5 - 175 TORYORK DR Toronto, ON",Humber Summit,312900,43.757954,-79.557304,119
"#905 - 120 HARRISON GARDEN BLVD Toronto, ON",Willowdale,399000,43.757988,-79.403625,32
"93 DAIRY DR Toronto, ON",Scarborough Junction,678000,43.701309,-79.27533,64
"#2010 - 100 MORNELLE CRT Toronto, ON",Morningside,255999,43.786823,-79.19548,16
"195 GILTSPUR DR Toronto, ON",Downsview,619900,43.738079,-79.501282,71
"#1016 - 55 DE BOERS DR Toronto, ON",Toronto,352500,43.75103,-79.465858,67
"#2308 - 2000 ISLINGTON AVE Toronto, ON",Kingsview Village,479900,43.697365,-79.546089,120
"#13 - 1415 KENNEDY RD Toronto, ON",Dorset Park,688888,43.764812,-79.280273,14
"3 JASMINE RD Toronto, ON",Humberlea,599000,43.721088,-79.538445,62
"#809 - 40 PANORAMA CRT Toronto, ON",Rexdale,59500,43.747585,-79.579842,23
"35 MAGNOLIA AVE Toronto, ON",Kennedy Park,749000,43.720936,-79.254662,22
"#513 - 4200 BATHURST ST Toronto, ON",Wilson Heights,294000,43.749321,-79.437149,31
"#25 - 21 REPLIN RD Toronto, ON",Lawrence Heights,575000,43.717735,-79.442039,82
"198 GLENDORA AVE Toronto, ON",Willowdale,1528000,43.761971,-79.397667,32
"53 ASPENWOOD DR Toronto, ON",Hillcrest Village,2000000,43.807964,-79.366913,15
"627 CALEDONIA RD Toronto, ON",Briar Hill - Belgravia,650000,43.694397,-79.462372,121
"#903 - 335 MILL RD Toronto, ON",Eringate - Centennial - West Deane,259900,43.639858,-79.584564,122
"#730 - 2885 BAYVIEW AVE Toronto, ON",Bayview Village,524888,43.767937,-79.387955,57
"124 GREENWICH SQ Toronto, ON",Eglinton East,699800,43.743881,-79.231148,114
"#2813 - 181 VILLAGE GREEN SQ Toronto, ON",Agincourt,293900,43.779205,-79.281517,19
"117 VEROBEACH BLVD Toronto, ON",Emery,699800,43.736176,-79.544945,123
"43 JOHN CABOT WAY Toronto, ON",Jane and Finch,399900,43.738815,-79.51902,124
"#821 - 165 LEGION RD N Toronto, ON",Mimico,314900,43.624207,-79.488228,48
"63 JARWICK DR Toronto, ON",Bendale,639000,43.764198,-79.241608,58
"22 MOSSBROOK CRES Toronto, ON",L'Amoreaux,699000,43.809433,-79.324379,125
"92 FRANK RIVERS DR Toronto, ON",Steeles,699900,43.818989,-79.325394,77
"90 CRITTENDEN SQ Toronto, ON",Malvern,549000,43.81366,-79.234749,28
"#1304 - 2 ANNDALE DR Toronto, ON",Willowdale,418888,43.760464,-79.410248,32
"45 MILLENNIUM DR Toronto, ON",Brookhaven - Amesbury,599900,43.695271,-79.497498,126
"6 WOODY VINEWAY WAY Toronto, ON",Bayview Village,529000,43.788269,-79.368301,57
"84 MUIRHEAD RD Toronto, ON",Pleasant View,599000,43.780949,-79.339569,118
"#1101 - 335 MILL RD Toronto, ON",Eringate - Centennial - West Deane,419900,43.639858,-79.584564,122
"#2611 - 88 CORPORATE DR Toronto, ON",Woburn,355000,43.780956,-79.249779,25
"114 MEIGHEN AVE Toronto, ON",Woodbine Gardens,665000,43.703903,-79.295723,127
"821 B OXFORD ST Toronto, ON",Mimico,778900,43.621113,-79.507195,48
"132 ELVASTON DR Toronto, ON",Victoria Village,1388800,43.728958,-79.315933,128
"#2102 - 155 BEECROFT RD Toronto, ON",Willowdale,299000,43.765537,-79.413155,32
"#1010 - 3043 FINCH WEST AVE Toronto, ON",Emery,309000,43.747166,-79.564651,123
"571 CUMMER AVE Toronto, ON",Newtonbrook,1599000,43.793625,-79.387253,49
"31 VESSEL CRES Toronto, ON",Port Union,756900,43.777721,-79.137276,129
"#109 - 165 CHEROKEE BLVD Toronto, ON",Pleasant View,372000,43.792374,-79.336693,118
"37 GEMINI RD Toronto, ON",Bayview Woods - Steeles,1369000,43.788219,-79.388046,18
"7 OVIDA AVE Toronto, ON",Eatonville,1569000,43.635109,-79.543159,130
"#E 508 - 555 WILSON AVE Toronto, ON",Wilson Heights,319900,43.734035,-79.447968,31
"#49 - 49 HENDON AVE Toronto, ON",Newtonbrook,520000,43.780727,-79.419991,49
"#1008 - 5 NORTHTOWN WAY Toronto, ON",Willowdale,335000,43.774994,-79.413467,32
"#2504 - 2220 LAKE SHORE BLVD W Toronto, ON",Mimico,425000,43.62273,-79.483192,48
"#108 - 275 BAMBURGH CIRC Toronto, ON",Steeles,381000,43.81361,-79.32341,77
"#1202 - 185 BONIS AVE Toronto, ON",Tam O'Shanter,338000,43.785805,-79.292114,24
"#2208 - 100 ANTIBES DR Toronto, ON",Newtonbrook,299000,43.780666,-79.446335,49
"#509 - 525 WILSON AVE Toronto, ON",Wilson Heights,339900,43.734478,-79.446472,31
"80 HEPSCOTT TERR Toronto, ON",L'Amoreaux,799000,43.793324,-79.327263,125
"#27 - 242 JOHN GARLAND BLVD Toronto, ON",Rexdale,200000,43.73354,-79.592949,23
"7 LANDOUR AVE Toronto, ON",Silverthorn,829000,43.687645,-79.477287,131
"4937 DUNDAS ST W Toronto, ON",Islington,54900,43.648006,-79.529228,73
"90 GLEN PARK AVE Toronto, ON",Midtown Toronto,1395000,43.711784,-79.43515,13
"#1210 - 275 BAMBURGH CIRC Toronto, ON",Steeles,269000,43.81361,-79.32341,77
"225 ATLAS AVE Toronto, ON",Midtown Toronto,1420000,43.688213,-79.433723,13
"108 AYLESWORTH AVE Toronto, ON",Birch Cliff,455000,43.701328,-79.264549,59
"567 MELROSE AVE Toronto, ON",Nortown,2388000,43.727737,-79.42942,51
"55 LAURIE SHEPWAY WAY Toronto, ON",Don Valley Village,669000,43.773926,-79.361595,29
"33 PUMA DR Toronto, ON",L'Amoreaux,599000,43.802258,-79.298607,125
"#155 - 68 DRIFTWOOD AVE Toronto, ON",Jane and Finch,239900,43.753849,-79.513535,124
"17 WHITBREAD CRES Toronto, ON",Jane and Finch,575000,43.74192,-79.509659,124
"36 CASTLEBAR RD Toronto, ON",The Queensway,849500,43.631695,-79.510124,78
"92 BLANTYRE AVE Toronto, ON",Birch Cliff,2348900,43.678131,-79.280182,59
"#27 -46 - 30 IRONSIDE CRES Toronto, ON",Armdale,345,43.825054,-79.246819,132
"#302 - 801 SHEPPARD AVE W Toronto, ON",Wilson Heights,318000,43.752892,-79.449783,31
"#601 - 1888 BAYVIEW AVE Toronto, ON",Midtown Toronto,1148000,43.717461,-79.37886,13
"#2308 - 88 SHEPPARD AVE E Toronto, ON",Willowdale,399800,43.763969,-79.407013,32
"#827 - 2 EVA RD Toronto, ON",Eatonville,274900,43.639694,-79.563148,130
"#711 - 125 PETER ST Toronto, ON",Downtown,401900,43.648296,-79.392952,4
"#1702 - 210 SIMCOE ST Toronto, ON",Downtown,388800,43.652451,-79.388931,4
"63 COUNCIL CRES Toronto, ON",Jane and Finch,599900,43.759514,-79.491844,124
"#1508 - 121 MCMAHON DR Toronto, ON",Bayview Village,478000,43.767746,-79.370918,57
"#738 - 650 LAWRENCE AVE W Toronto, ON",Lawrence Heights,357000,43.717121,-79.441757,82
"#3501 - 70 TEMPERANCE ST Toronto, ON",Downtown,593900,43.650372,-79.382347,4
"#108 - 525 WILSON AVE Toronto, ON",Wilson Heights,455000,43.734478,-79.446472,31
"#1902 - 35 HOLLYWOOD AVE Toronto, ON",Willowdale,399000,43.765842,-79.410057,32
"#1414 - 85 BLOOR ST E Toronto, ON",Downtown,419000,43.670372,-79.384468,4
"#2607 - 2200 LAKESHORE BLVD Toronto, ON",Mimico,437888,43.622883,-79.481972,48
"#1207 - 2550 LAWRENCE AVE E Toronto, ON",Dorset Park,229000,43.751743,-79.266388,14
"#207 - 55 ANN O&#39;REILLY RD Toronto, ON",Port Hope,497250,43.960762,-78.323914,133
"#111 - 215 FORT YORK BLVD Toronto, ON",Niagara,303400,43.636345,-79.404808,54
"#3511 - 14 YORK ST Toronto, ON",Downtown,299999,43.641788,-79.381874,4
"25 DELABO DR Toronto, ON",York University Heights,779000,43.76524,-79.502808,134
"#5014 - 70 TEMPERANCE ST Toronto, ON",Downtown,419900,43.650372,-79.382347,4
"#3105 - 33 SINGER CRT Toronto, ON",Bayview Village,475000,43.769611,-79.368416,57
"#602 - 11 BOGERT AVE Toronto, ON",Lansing,589000,43.760517,-79.411743,65
"9 ANTELOPE DR Toronto, ON",Rouge,899900,43.808025,-79.189018,80
"278 BETTY ANN DR N Toronto, ON",Willowdale,2498000,43.765755,-79.433098,32
"#711 - 6 EVA RD Toronto, ON",Eatonville,289900,43.640301,-79.562302,130
"#3103 - 28 TED ROGERS WAY Toronto, ON",Downtown,378000,43.670547,-79.380585,4
"#2702 - 101 CHARLES ST E Toronto, ON",Downtown,559800,43.669643,-79.380608,4
"#Th 40 - 31 CONEFLOWER CRES Toronto, ON",Newtonbrook,688000,43.778427,-79.450531,49
"#2316 - 700 HUMBERWOOD BLVD Toronto, ON",Rexdale,239900,43.724766,-79.616486,23
"#305 - 39 Shank St Toronto, ON",King West Village,636000,43.642071,-79.414581,107
"9 Andrew Ave Toronto, ON",Cliffcrest,599000,43.721256,-79.245033,135
"#1815 - 150 Sudbury St Toronto, ON",Little Portugal,330000,43.641529,-79.424118,136
"23 Kenton Dr Toronto, ON",Newtonbrook,949900,43.778614,-79.441551,49
"124 Breezehill Avenue Ottawa, ON",Ottawa,629900,45.404568,-75.718109,137
"206 Gray Crescent Ottawa, ON",Kanata,318800,45.317345,-75.898247,138
"1201 OHIO STREET UNIT#107 Ottawa, ON",Alta Vista,297500,45.384857,-75.673737,139
"1141 AMBLESIDE DRIVE Ottawa, ON",Ottawa,379900,45.372601,-75.781059,137
"1085 BORDEN SIDE ROAD Ottawa, ON",Borden Farm - Stewart Farm - Parkwood Hills - Fisher Glen,289900,45.354012,-75.705315,140
"2546 NEEDHAM CRESCENT Ottawa, ON",Alta Vista,518800,45.371815,-75.667976,139
"3205 UPLANDS DRIVE UNIT#31 Ottawa, ON",Hunt Club East - Western Community,268900,45.350307,-75.679619,141
"180 YORK STREET UNIT#806 Ottawa, ON",Byward Market,208900,45.42968,-75.68856,142
"1015 CARLING AVENUE Ottawa, ON",Civic Hospital - Experimental Farm - Central Park,1295000,45.393551,-75.717422,143
"200 BAY STREET UNIT#501 Ottawa, ON",Byward Market - Parliament Hill,240000,45.416851,-75.705475,144
"75 ARLINGTON AVENUE Ottawa, ON",Centretown,448888,45.409275,-75.69487,145
"62 ESTERLAWN PRIVATE Ottawa, ON",Carlingwood West - Glabar Park - McKellar Heights,289900,45.368946,-75.767921,146
"176 GLADSTONE AVENUE Ottawa, ON",Centretown,769000,45.415016,-75.686661,145
"238 BESSERER STREET UNIT#414 Ottawa, ON",Ottawa,290000,45.427834,-75.685471,137
"1387 ORILLIA STREET Ottawa, ON",Alta Vista,499900,45.385185,-75.66465,139
"449 SADAR PRIVATE Ottawa, ON",Munster Hamlet - Richmond,255900,45.263744,-75.776192,147
"2954 PRINCE OF WALES DRIVE Ottawa, ON",Greenbelt,789900,45.298073,-75.70182,148
"2111 MONTREAL ROAD UNIT#89 Ottawa, ON",Beacon Hill North,248000,45.449188,-75.591904,149
"1 DELONG DRIVE Ottawa, ON",Ottawa,989000,45.453053,-75.608871,137
"770 PAUL METIVIER DRIVE Ottawa, ON",New Barrhaven,329000,45.265137,-75.734337,150
"374 BALINROAN CRESCENT Ottawa, ON",New Barrhaven,326800,45.268707,-75.732681,150
"81 BARONESS DRIVE Ottawa, ON",Greenbelt,619900,45.290211,-75.706245,148
"20 COACHMAN CRESCENT Ottawa, ON",Stittsville,685000,45.256332,-75.936829,151
"2423 ORIENT PARK DRIVE Ottawa, ON",Blackburn Hamlet,299900,45.433681,-75.552895,152
"5745 ANDRASI CRESCENT Osgoode, ON",Osgoode,399900,45.15126,-75.59787,153
"120 DELANEY DRIVE Carp, ON",Carp,325000,45.29409,-76.075279,154
"818 ROCKSON CRESCENT Stittsville, ON",Stittsville,899900,45.246834,-75.926735,151
"408 BRECKENRIDGE CRESCENT Ottawa, ON",Kanata,319900,45.355247,-75.935486,138
"455 Hyde Park Rd London, ON",Oakridge,349900,42.966244,-81.315643,155
"1360 Glenora Dr London, ON",Stoneybrook,269900,43.033077,-81.239372,156
"90 DELAWARE Street London, ON",Hamilton Road,159900,42.975544,-81.20118,157
"2129 NORTH ROUTLEDGE PK London, ON",Hyde Park,259900,43.003849,-81.333084,158
"9 - 141 CONDOR Court London, ON",Argyle,148900,42.988762,-81.176979,159
"401 - 570 WILLIAM Street London, ON",Central London,159900,42.993401,-81.236397,160
"559 HWY Parry Sound, ON",Parry Sound,49000,45.440887,-80.131989,161
"35 - 340 AMBLESIDE Drive London, ON",Masonville,239900,43.020699,-81.298203,162
"5991 LUNDY&#39;S Lane Niagara Falls, ON",Niagara Falls,399000,43.089775,-79.093605,163
"3955 Portage Road Niagara Falls, ON",Niagara Falls,164900,43.116062,-79.099495,163
"4719 EPWORTH Circle Niagara Falls, ON",Niagara Falls,238000,43.098534,-79.069298,163
"7813 BEAVERDAMS Road Niagara Falls, ON",Niagara Falls,299900,43.09145,-79.126511,163
"6617 FREDERICA Street Niagara Falls, ON",Niagara Falls,349900,43.094986,-79.105583,163
"28 5070 DRUMMOND Road Niagara Falls, ON",Niagara Falls,284900,43.100479,-79.098167,163
"6175 Skinner Street Niagara Falls, ON",Niagara Falls,159900,43.074432,-79.096474,163
"1710 Garner Road Niagara Falls, ON",Niagara Falls,599900,43.145245,-79.149513,163
"3710 Main Street Niagara Falls, ON",Niagara Falls,155000,43.058968,-79.050613,163
"303 6928 AILANTHUS Avenue Niagara Falls, ON",Niagara Falls,224900,43.075092,-79.088997,163
"5026 CENTRE Street Niagara Falls, ON",Niagara Falls,298000,43.092335,-79.077042,163
"8174 ORCHARD GROVE Parkway Niagara Falls, ON",Niagara Falls,359900,43.092018,-79.134216,163
"3282 Cattell Drive Niagara Falls, ON",Niagara Falls,319900,43.05563,-79.042099,163
"4340 Seneca Street Niagara Falls, ON",Niagara Falls,319900,43.100246,-79.064995,163
"6697 SPENCE Street Niagara Falls, ON",Niagara Falls,352000,43.088139,-79.10675,163
"8674 MCGARRY Drive Niagara Falls, ON",Niagara Falls,485900,43.072556,-79.143013,163
"7700 Thomas Street Niagara Falls, ON",Niagara Falls,219900,43.056118,-79.064247,163
"9440 Eagle Ridge Drive Niagara Falls, ON",Niagara Falls,348000,43.089443,-79.158173,163
"4727 Jepson Street Niagara Falls, ON",Niagara Falls,199000,43.100815,-79.071495,163
"6118 Kelsey Crescent Niagara Falls, ON",Niagara Falls,289990,43.084431,-79.137497,163
"147 UNIVERSITY Avenue E Waterloo, ON",Waterloo,379900,43.480255,-80.513916,164
"#Cp625 - 330 PHILLIP ST Waterloo, ON",Waterloo,340000,43.47644,-80.538872,164
"300 Pilgrim Circle Waterloo, ON",Waterloo,1395000,43.499935,-80.512299,164
"596 Regal Place Waterloo, ON",Waterloo,1500000,43.477161,-80.604462,164
"6 Willow Street Waterloo, ON",Waterloo,399900,43.465473,-80.516914,164
"452 Ainsworth Court Waterloo, ON",Beechwood,744900,43.455589,-80.560898,165
"196 ALEXANDRA Avenue Waterloo, ON",Waterloo,460000,43.457123,-80.531189,164
"305 MAVERICK Street Waterloo, ON",Waterloo,359900,43.500134,-80.491669,164
"764 ZERMATT DR Waterloo, ON",Waterloo,369000,43.455921,-80.575035,164
"478 Lausanne Crescent Waterloo, ON",Waterloo,339900,43.453083,-80.575584,164
"#T2 -210- 330 PHILLIP ST Waterloo, ON",Waterloo,415000,43.47644,-80.538872,164
"522 Beechwood Drive Waterloo, ON",Beechwood,274900,43.451122,-80.562279,165
"115 Roslin Avenue Waterloo, ON",Waterloo,699000,43.455444,-80.526154,164
"191 King Street Waterloo, ON",Waterloo,1650,43.459396,-80.518845,164
"647 Albert Street Waterloo, ON",Waterloo,225000,43.491013,-80.540924,164
"# L18 Regal Place Waterloo, ON",Waterloo,1300000,43.477406,-80.603355,164
"324 Tealby Crescent Waterloo, ON",Waterloo,599900,43.490051,-80.523369,164
"776 Laurelwood Drive Waterloo, ON",Waterloo,249900,43.470776,-80.598259,164
"176 Cavelletti Court Waterloo, ON",Waterloo,345000,43.489429,-80.484985,164
"279 GLENRIDGE Place Waterloo, ON",Waterloo,405000,43.485199,-80.511269,164
"130 Marshall Street Waterloo, ON",Waterloo,1600,43.475807,-80.515541,164
"472 Kingsmill Court Waterloo, ON",Beechwood,649900,43.46368,-80.569458,165
"986 Creekside Drive Waterloo, ON",Waterloo,329900,43.471558,-80.599762,164
"413 Bairstow Crescent Waterloo, ON",Waterloo,214900,43.492432,-80.508278,164
"395 Cavendish Drive Waterloo, ON",Laurelwood,750000,43.463894,-80.579041,166
"425 Grangewood Drive Waterloo, ON",Waterloo,339900,43.492649,-80.500488,164
"642 Ellesmere Court Waterloo, ON",Waterloo,379900,43.496864,-80.572464,164
"138 Stonehaven Drive Waterloo, ON",Waterloo,499000,43.444149,-80.544327,164
"lot #4 Regal Place Waterloo, ON",Waterloo,1250000,43.477406,-80.603355,164
"405 Cider Mill Drive Waterloo, ON",Waterloo,514771,43.525036,-80.495377,164
"562 FOREST GATE CRES Waterloo, ON",Waterloo,699000,43.47673,-80.596878,164
"138 Windale Cres Kitchener, ON",Laurentian Hills,364999,43.421047,-80.507317,167
"1503 81 CHURCH Street Kitchener, ON",Cedar Hill,194500,43.446644,-80.487755,168
"164 Max Becker Drive Kitchener, ON",Laurentian West,285000,43.403786,-80.506622,169
"44 Eliza Avenue Kitchener, ON",Laurentian West,322175,43.39922,-80.524658,169
"300 Westmount Road E Kitchener, ON",Meinzinger State Park,385900,43.42606,-80.504669,170
"8 305 Briarmeadow Drive Kitchener, ON",Idlewood,325000,43.43996,-80.422363,171
"417 Courtland Avenue Kitchener, ON",Mill Courtland Woodside Park,295000,43.437489,-80.478294,172
"1133 Doon Village Road Kitchener, ON",Doon South,619900,43.388584,-80.431282,85
"394 Activa Avenue Kitchener, ON",Laurentian West,374500,43.404503,-80.519814,169
"35 Ridgeway Crescent Kitchener, ON",Country Hills West,374900,43.40662,-80.497032,173
"354 Apple Hill Crescent Kitchener, ON",Trussler,459900,43.387787,-80.4925,174
"283 Erinbrook Drive Kitchener, ON",Country Hills West,359900,43.404907,-80.495247,173
"480 Veronica Drive Kitchener, ON",Centreville Chicopee,419900,43.439445,-80.428741,175
"38 Amelia Street Kitchener, ON",Grand River South,599000,43.449482,-80.407745,87
"204 VANIER Drive Kitchener, ON",Vanier,374900,43.426662,-80.4618,176
"48 HIGHBROOK Street Kitchener, ON",Laurentian Hills,327900,43.409439,-80.499725,167
"17 60 ELMSDALE Drive Kitchener, ON",Laurentian Hills,184000,43.422153,-80.49585,167
"10 Yarrow Court Kitchener, ON",Laurentian West,514900,43.402744,-80.511238,169
"11 3 Sims Estate Place Kitchener, ON",Centreville Chicopee,699000,43.438904,-80.420242,175
"236 OREGON Court Kitchener, ON",Doon South,959900,43.387577,-80.431694,85
"209 Northmanor Crescent Kitchener, ON",Highland West,415900,43.438423,-80.549568,177
"227 Chestnut Hill Crescent Kitchener, ON",Doon South,2300,43.381294,-80.427307,85
"247 PIONEER Drive Kitchener, ON",Pioneer Park,180000,43.39362,-80.439751,178
"529 TERRINGTON Crescent Kitchener, ON",Doon South,864000,43.37632,-80.428032,85
"66 Borden Avenue Kitchener, ON",King East,270000,43.444454,-80.472672,179
"91 Georgian Crescent Kitchener, ON",Grand River North,449800,43.467094,-80.442169,180
"6 165 GREEN VALLEY Drive Kitchener, ON",Pioneer Park,164900,43.395489,-80.427216,178
"212 3227 KING Street E Kitchener, ON",Centreville Chicopee,189900,43.425385,-80.425407,175
"65 Cluthe Crescent Kitchener, ON",Pioneer Park,299900,43.397125,-80.452171,178
"10 Royal Orchard Place Kitchener, ON",Forest Heights,359900,43.415348,-80.52948,86
"41 Cambridge Avenue Kitchener, ON",Rosemount,315000,43.457245,-80.465225,181
"95 Bridlewreath Street Kitchener, ON",Laurentian West,399900,43.405163,-80.510262,169
"22 CEDARLAWN Court Hamilton, ON",Gurnett,579900,43.220734,-79.921524,182
"129 EAST 31ST Street Hamilton, ON",Raleigh,349900,43.234478,-79.845093,183
"23 BORDEAUX Court Hamilton, ON",Barnstown,569900,43.199207,-79.875671,184
"975 UPPER WELLINGTON Street Hamilton, ON",Bruleville,299900,43.224483,-79.872437,185
"#2 - 300 REXFORD DR Hamilton, ON",Randall,319900,43.207241,-79.849724,186
"226 SOUTHWOOD Drive Hamilton, ON",Sherwood,359000,43.225456,-79.818954,187
"193 East 19th Street Hamilton, ON",Inch Park,324900,43.236198,-79.857582,188
"# 703 - 66 BAY ST S Hamilton, ON",Durand,349900,43.255989,-79.875145,189
"295-297 OTTAWA Street Hamilton, ON",Crown Point West,367800,43.250462,-79.816887,190
"532 FERGUSON Avenue Hamilton, ON",North End East,229900,43.27071,-79.854385,37
"517 UPPER JAMES Street Hamilton, ON",Centremount,319900,43.242424,-79.875542,191
"5 HILTON Street Hamilton, ON",Durand,1280000,43.248795,-79.8787,189
"48 Evans Street Hamilton, ON",Central Hamilton,359000,43.25713,-79.855667,7
"202 BELMONT Avenue Hamilton, ON",Crown Point West,535000,43.249962,-79.822159,190
"1749 UPPER WENTWORTH Street Hamilton, ON",Chappel East,375000,43.196201,-79.873352,192
"102 NEIL AVE Hamilton, ON",Greenford,285900,43.227161,-79.767403,3
"148 BURTON Street Hamilton, ON",Industrial Sector A and Keith,199900,43.263344,-79.845551,193
"150 AVONDALE Street Hamilton, ON",Crown Point West,289500,43.252605,-79.825348,190
"#335 - 5679 ARROWHEAD RD Hamilton Township, ON",Bailieboro,399900,44.119431,-78.314758,194
"5679 ARROWHEAD RD|Unit 335 BAILIEBORO RICE LAKE, ON",Bailieboro,399900,44.120411,-78.314285,194
"803 CHAPMAN BOULEVARD Ottawa, ON",Elmvale - Eastway - Riverview - Riverview Park West,374900,45.396999,-75.632889,195
"69 PELLAN WAY Ottawa, ON",Kanata,547500,45.328678,-75.907623,138
"220 CHELTON Road London, ON",Jackson,339900,42.960289,-81.175217,196
"5 - 30 CLARENDON Crescent London, ON",White Oaks,174900,42.947899,-81.240601,197
"2 3710 MAIN Street Niagara Falls, ON",Niagara Falls,155000,43.058968,-79.050613,163
"6911 DEVON Drive Niagara Falls, ON",Niagara Falls,365900,43.074615,-79.131821,163
"375 King Street Waterloo, ON",Waterloo,149900,43.482498,-80.527054,164
"Lot #156 Snowberry Court Waterloo, ON",Waterloo,844900,43.457218,-80.600441,164
"B 176 CAVELLETTI Court Waterloo, ON",Waterloo,345000,43.489429,-80.484985,164
"7 203 FAIRWAY Road N Kitchener, ON",Centreville Chicopee,174900,43.432953,-80.428986,175
"150 AVONDALE ST Hamilton, ON",Crown Point West,289500,43.252605,-79.825348,190
"116 CHARLESWOOD CRES Hamilton, ON",Hamilton,439900,43.177521,-79.800346,34
"105 KILLARNEY Place London, ON",Stoneybrook,179900,43.038124,-81.226387,156
"21 OAKHURST CRESCENT Ottawa, ON",Blackburn Hamlet,474000,45.439167,-75.558022,152
"#402 - 1250 Bridletowne Circ Toronto, ON",Bridlewood,229900,43.794464,-79.312782,55
"#302 - 28 Empress Ave Toronto, ON",Willowdale,427900,43.769981,-79.411751,32
"#514 - 25 Laidlaw St Toronto, ON",Toronto,749000,43.640354,-79.426109,67
"255 Blythwood Rd Toronto, ON",Midtown Toronto,1750000,43.718014,-79.392662,13
"#320 - 801 KING ST W Toronto, ON",Niagara,299900,43.642792,-79.407196,54
"69 GILBERT AVE Toronto, ON",Earlscourt,625000,43.679153,-79.457504,198
"#554 - 313 RICHMOND ST E Toronto, ON",Old Town,320000,43.653194,-79.368637,75
"359 ASHDALE AVE Toronto, ON",Leslieville,599900,43.674438,-79.322563,74
"#Th 2 - 68 CARR ST Toronto, ON",Downtown,519900,43.649609,-79.403625,4
"7 HARRISON ST Toronto, ON",Little Italy,1098000,43.651443,-79.418373,199
"#Ph06 - 21 GRENVILLE ST Toronto, ON",Downtown,479000,43.661793,-79.384506,4
"482 SPADINA RD Toronto, ON",Midtown Toronto,2495000,43.692696,-79.414703,13
"#419 - 68 BROADVIEW AVE Toronto, ON",Riverdale,539000,43.657417,-79.349815,76
"785 EASTERN AVE Toronto, ON",Leslieville,699000,43.66098,-79.330055,74
"152 MEDLAND ST Toronto, ON",High Park North,995000,43.662804,-79.465935,200
"162 ROSEMOUNT Avenue Toronto, ON",Earlscourt,789000,43.676144,-79.443947,198
"#Ph62 - 313 RICHMOND ST E Toronto, ON",Old Town,369900,43.653194,-79.368637,75
"737 AVENUE RD Toronto, ON",Midtown Toronto,2399900,43.696072,-79.40477,13
"17 BRAD ST Toronto, ON",High Park North,749900,43.663395,-79.458008,200
"51 BELLEVILLE ST Toronto, ON",Upper Beaches,799900,43.686947,-79.290451,201
"283 SNOWDON AVE Toronto, ON",North Toronto,1480000,43.733105,-79.393219,109
"18 NATALIE PL Toronto, ON",Leslieville,799000,43.66235,-79.342567,74
"#808 - 110 BLOOR ST W Toronto, ON",Midtown Toronto,1099000,43.669445,-79.39225,13
"80 NEWMARKET AVE Toronto, ON",Woodbine - Lumsden,899900,43.68996,-79.304413,112
"34 AUSTIN TERR Toronto, ON",Midtown Toronto,2629000,43.678749,-79.414062,13
"#2010 - 151 VILLAGE GREEN SQ Toronto, ON",Agincourt,249888,43.778614,-79.281258,19
"97 CULTRA SQ Toronto, ON",West Hill,599900,43.758068,-79.191078,68
"1 PEGASUS TR Toronto, ON",Woburn,649000,43.779556,-79.225761,25
"175 FLORENCE AVE Toronto, ON",Lansing,1288000,43.756256,-79.418388,65
"6 ALBA PL Toronto, ON",Rexdale,549900,43.731327,-79.604149,23
"210 RORY RD Toronto, ON",Maple Leaf,599900,43.720924,-79.483597,202
"7 LEHAR CRES Toronto, ON",Hillcrest Village,950000,43.793015,-79.361977,15
"124 ASHBOURNE DR Toronto, ON",Eatonville,929000,43.648678,-79.545883,130
"79 CHAPMAN AVE Toronto, ON",Woodbine Gardens,679900,43.700798,-79.297798,127
"52 FERNANDO RD Toronto, ON",Emery,579900,43.745102,-79.539406,123
"42 PARADE SQ Toronto, ON",Highland Creek,734900,43.791893,-79.180328,203
"103 FISHERY RD Toronto, ON",Highland Creek,699900,43.790642,-79.176041,203
"#5 - 1646 VICTORIA PARK AVE Toronto, ON",Victoria Village,36000,43.73098,-79.30584,128
"#1721 - 5 SHEPPARD AVE E Toronto, ON",Willowdale,419800,43.761501,-79.409882,32
"#P1 -01 - 10 BLOORVIEW PL Toronto, ON",Don Valley Village,798000,43.773495,-79.358963,29
"#32 - 83 IRWIN RD Toronto, ON",Rexdale,349900,43.724998,-79.559105,23
"207 ENNERDALE RD Toronto, ON",Fairbank,1149000,43.693851,-79.452827,6
"#1614 - 390 DIXON RD Toronto, ON",Kingsview Village,225000,43.695709,-79.557632,120
"#408 - 3845 LAKE SHORE BLVD W Toronto, ON",Long Branch,349000,43.590603,-79.544258,70
"49 THIRTY SEVENTH ST Toronto, ON",Long Branch,1659888,43.591671,-79.537209,70
"103 BAMFORD CRES Toronto, ON",Jane and Finch,647500,43.769268,-79.526489,124
"#1809 - 265 RIDLEY BLVD Toronto, ON",Nortown,595000,43.739479,-79.42408,51
"17 A HOBDEN PL Toronto, ON",Richview,519000,43.684471,-79.565704,0
"39 COBALT ST Toronto, ON",Mount Dennis,499000,43.692429,-79.498917,204
"22 TOULON RD Toronto, ON",Woburn,599999,43.761688,-79.221779,25
"11 ELLINGTON DR Toronto, ON",Wexford,649000,43.747566,-79.290649,205
"137 CONN SMYTHE DR Toronto, ON",Scarborough Village,479000,43.743988,-79.223457,206
"41 ARCHIBALD MEWS Toronto, ON",Bendale,649900,43.753349,-79.264595,58
"20 HEAVITREE DR Toronto, ON",Downsview,519000,43.726231,-79.514557,71
"1 B BOWSPRIT AVE Toronto, ON",Humber Heights - Westmount,699000,43.697193,-79.52858,26
"33 MUNRO BLVD Toronto, ON",St. Andrew - Windfields,2498000,43.745895,-79.397919,17
"30 BUSHEY AVE Toronto, ON",Rockcliffe - Smythe,560000,43.6833,-79.484657,207
"#17 - 671 HUNTINGWOOD DR Toronto, ON",Tam O'Shanter,499900,43.7897,-79.30526,24
"#335 - 4750 YONGE ST Toronto, ON",Toronto,299000,43.761047,-79.410904,67
"#279 - 209 FORT YORK BLVD Toronto, ON",Niagara,539900,43.636963,-79.404671,54
"#1007 - 32 DAVENPORT RD Toronto, ON",Midtown Toronto,899000,43.673172,-79.389687,13
"#6802 - 10 YORK ST Toronto, ON",Downtown,2340000,43.641247,-79.380821,4
"#605 - 18 HOLMES AVE Toronto, ON",Willowdale,457000,43.778435,-79.41333,32
"#1908 - 23 LORRAINE DR Toronto, ON",Willowdale,419900,43.778015,-79.416656,32
"#1904 - 1 MARKET ST Toronto, ON",Downtown,695000,43.646873,-79.371078,4
"#18 - 385 The East Mall Toronto, ON",Islington - City Centre West,589900,43.645439,-79.558334,66
"#514 - 1403 Royal York Rd Toronto, ON",Humber Heights - Westmount,439900,43.682999,-79.525726,26
"#2303 - 820 Burnhamthorpe Rd Rd Toronto, ON",Markland Wood,415900,43.639656,-79.58271,208
"#904 - 1 Valhalla Inn Rd Toronto, ON",Islington - City Centre West,345000,43.640285,-79.559464,66
"#2106 - 1 Valhalla Inn Rd Toronto, ON",Islington - City Centre West,289900,43.640285,-79.559464,66
"#708 - 7 Michael Power Pl Toronto, ON",Islington - City Centre West,359900,43.644325,-79.529732,66
"#906 - 235 Sherway Gardens Rd Toronto, ON",Islington - City Centre West,389900,43.609261,-79.558998,66
"#801 - 627 The West Mall Dr Toronto, ON",Eringate - Centennial - West Deane,344888,43.655231,-79.570572,122
"#3 - 15 Valhalla Inn Rd Toronto, ON",Islington - City Centre West,549900,43.640156,-79.558861,66
"#2408 - 235 Sherway Gardens Rd Toronto, ON",Islington - City Centre West,309900,43.609261,-79.558998,66
"#1520 - 100 Harrison Garden Blvd Toronto, ON",Willowdale,449800,43.757233,-79.404686,32
"#1217 - 155 YORKVILLE AVE Toronto, ON",Midtown Toronto,529000,43.670319,-79.394432,13
"#705 - 100 WESTERN BATTERY RD Toronto, ON",Niagara,389900,43.63966,-79.415771,54
"#1102 - 100 WESTERN BATTERY RD Toronto, ON",Niagara,379900,43.63966,-79.415771,54
"#603 - 141 ROEHAMPTON AVE Toronto, ON",Midtown Toronto,789800,43.708694,-79.394318,13
"#1205 - 8 THE ESPLANADE AVE Toronto, ON",Downtown,989000,43.64613,-79.375778,4
"#1611 - 125 WESTERN BATTERY RD Toronto, ON",Niagara,449900,43.639946,-79.416664,54
"#225 - 380 MACPHERSON AVE Toronto, ON",Midtown Toronto,359000,43.676369,-79.405739,13
"#415 - 707 DOVERCOURT RD Toronto, ON",Dufferin Grove,259000,43.660225,-79.428726,111
"#314 - 101 ERSKINE AVE Toronto, ON",Mount Pleasant West,467000,43.711609,-79.3955,209
"#1105 - 500 ST CLAIR AVE W Toronto, ON",Midtown Toronto,599900,43.683372,-79.418686,13
"#208 - 9 SPADINA AVE Toronto, ON",Entertainment District,329900,43.640247,-79.392395,110
"#506 - 9 SPADINA AVE Toronto, ON",Entertainment District,318000,43.640247,-79.392395,110
"#3011 - 155 YORKVILLE AVE Toronto, ON",Midtown Toronto,444900,43.670319,-79.394432,13
"#811 - 1 MICHAEL POWER PL Toronto, ON",Islington - City Centre West,420000,43.643925,-79.528885,66
"#Ph602 - 25 EARLINGTON AVE Toronto, ON",The Kingsway,649900,43.661209,-79.508301,210
"#1406 - 551 THE WEST MALL RD Toronto, ON",Etobicoke West Mall,299000,43.651909,-79.569687,211
"#104 - 50 SCARBOROUGH GOLF CLUB RD Toronto, ON",Scarborough Village,249900,43.744297,-79.209541,206
"#1409 - 10 PARKWAY FOREST DR Toronto, ON",Henry Farm,285000,43.769733,-79.345482,61
"#3108 - 3303 DON MILLS RD Toronto, ON",Don Valley Village,549000,43.791603,-79.354248,29
"#1405 - 100 HARRISON GARDEN BLVD Toronto, ON",Willowdale,400900,43.757233,-79.404686,32
"#606 - 96 FIFESHIRE RD Toronto, ON",St. Andrew - Windfields,529900,43.76083,-79.387207,17
"#3 - 80 BELL ESTATE RD E Toronto, ON",Clairlea - Birchmount,779000,43.705589,-79.275879,212
"#801 - 18 WILLIAM CARSON CRES Toronto, ON",York Mills,354000,43.749531,-79.407188,63
"#1509 - 2111 LAKE SHORE BLVD W Toronto, ON",Mimico,545000,43.628983,-79.477852,48
"#2324 - 135 VILLAGE GREEN SQ Toronto, ON",Agincourt,378000,43.777565,-79.281006,19
"#907 - 151 VILLAGE GREEN SQ Toronto, ON",Agincourt,383000,43.778614,-79.281258,19
"#1511 - 30 HARRISON GARDEN BLVD Toronto, ON",Willowdale,269900,43.756371,-79.408394,32
"#2305 - 820 BURNHAMTHORPE RD Toronto, ON",Markland Wood,424000,43.639656,-79.58271,208
"#Block - 6443 KINGSTON RD Toronto, ON",Highland Creek,1174900,43.791302,-79.158119,203
"#2007 - 16 BROOKERS LANE Toronto, ON",Humber Bay Shores,679900,43.626965,-79.478485,213
"#1505 - 133 TORRESDALE AVE Toronto, ON",Newtonbrook,354990,43.778614,-79.452042,49
"#308 - 28 HARRISON GARDEN BLVD Toronto, ON",Willowdale,368800,43.756668,-79.408623,32
"#2009 - 5 VALHALLA INN RD Toronto, ON",Islington - City Centre West,259999,43.640293,-79.559761,66
"#1109 - 5 SHADY GOLFWAY GLWY Toronto, ON",Toronto,309900,43.653225,-79.383186,67
"#808 - 3380 EGLINTON AVE E Toronto, ON",Scarborough Village,209900,43.744812,-79.214561,206
"#1801 - 16 BROOKERS LANE Toronto, ON",Humber Bay Shores,279999,43.626965,-79.478485,213
"235 Sherway Gardens Road Toronto, ON",Islington - City Centre West,309900,43.609261,-79.558998,66
"#710 - 100 HARRISON GARDEN BLVD Toronto, ON",Willowdale,399900,43.757233,-79.404686,32
"#1534 - 120 HARRISON GARDEN BLVD Toronto, ON",Willowdale,444000,43.757988,-79.403625,32
"#72 - 3 CENTENNIAL PARK RD Toronto, ON",Eringate - Centennial - West Deane,374900,43.651314,-79.58139,122
"#1508 - 50 BRIAN HARRISON WAY Toronto, ON",Bendale,286000,43.773582,-79.258919,58
"#2402 - 2220 LAKE SHORE BLVD W Toronto, ON",Mimico,409900,43.62273,-79.483192,48
"#1109 - 40 BAY MILLS BLVD Toronto, ON",Tam O'Shanter,228000,43.780746,-79.30529,24
"#120 - 50 SCARBOROUGH GOLF CLUB RD Toronto, ON",Scarborough Village,299900,43.744297,-79.209541,206
"#2402 - 70 FOREST MANOR RD Toronto, ON",Henry Farm,550000,43.774895,-79.345955,61
"#808 - 2 COVINGTON RD Toronto, ON",Englemount - Lawrence,539000,43.721115,-79.430847,214
"# 2905 - 70 TOWN CENTRE CT Scarborough, ON",Bendale,270000,43.773689,-79.255424,58
"#209 - 2240 LAKE SHORE BLVD W Toronto, ON",Mimico,269900,43.621063,-79.483322,48
"#523 - 650 SHEPPARD AVE E Toronto, ON",Bayview Village,324800,43.768475,-79.381607,57
"#3107 -3- 4438 SHEPPARD AVE E Toronto, ON",Agincourt,970000,43.788311,-79.268082,19
"#1506 A - 710 HUMBERWOOD BLVD Toronto, ON",Rexdale,289900,43.724556,-79.616455,23
"#Ph01 - 1070 SHEPPARD AVE W Toronto, ON",York University Heights,519000,43.750637,-79.465103,134
"#Lph05 - 797 DON MILLS RD Toronto, ON",Flemingdon Park,354000,43.719494,-79.337746,52
"#2004 - 4101 SHEPPARD AVE E Toronto, ON",Agincourt,268000,43.78344,-79.283562,19
"#301 - 60 PAVANE LINKWAY WAY Toronto, ON",Flemingdon Park,299900,43.711529,-79.322899,52
"174 Hawthorne Avenue Ottawa, ON",Old Ottawa East,509900,45.414005,-75.676537,215
"1791 Maple Grove Road Kanata, ON",Stittsville,265000,45.288254,-75.921722,151
"708 Clearbrook Drive Ottawa, ON",New Barrhaven,544900,45.273212,-75.725487,150
"2112 Benjamin Avenue Ottawa, ON",Carlingwood West - Glabar Park - McKellar Heights,429000,45.364918,-75.764206,146
"#B - 8 Meadowlands Drive Ottawa, ON",Crestview - Meadowlands,615000,45.350327,-75.734428,216
"#A - 8 Meadowlands Drive Ottawa, ON",Crestview - Meadowlands,599000,45.350327,-75.734428,216
"#1202 - 90 Landry Street Ottawa, ON",Vanier,459000,45.437595,-75.671364,176
"8 Metropole Private Ottawa, ON",Westboro Beach,500000,45.398041,-75.749512,217
"565 Erinwoods Circle Ottawa, ON",New Barrhaven,624900,45.252438,-75.716637,150
"#606 - 95 Bronson Avenue Ottawa, ON",Byward Market - Parliament Hill,630000,45.416809,-75.708519,144
"730 Bowercrest Crescent Gloucester, ON",Ottawa,349000,45.281384,-75.677872,137
"110 Springfield Road Ottawa, ON",New Edinburgh,579500,45.442364,-75.677185,218
"316 Lafontaine Avenue Ottawa, ON",Vanier,399900,45.436268,-75.655144,176
"#2004 - 70 Landry Street Ottawa, ON",Vanier,299900,45.437824,-75.671967,176
"#705 - 470 Laurier Avenue Ottawa, ON",Byward Market - Parliament Hill,249900,45.416191,-75.70417,144
"2019 Featherston Drive Ottawa, ON",Elmvale - Eastway - Riverview - Riverview Park West,529900,45.386192,-75.635803,195
"2838 Grandeur Avenue Ottawa, ON",Crystal Bay - Lakeview Park - Britannia Village,819900,45.362141,-75.8022,219
"29 Ballymore Avenue Ottawa, ON",Greenboro East,444900,45.371174,-75.627319,220
"523 Tillbury Avenue Ottawa, ON",Carlingwood - McKellar Park - Laurentien View,899900,45.379673,-75.756599,221
"93 Kennevale Drive Ottawa, ON",Barrhaven West - Old Barrhaven,329900,45.267208,-75.768303,222
"15 Bartley Crescent Nepean, ON",Barrhaven West - Old Barrhaven,434000,45.272297,-75.748703,222
"9 Marier Road Ottawa, ON",Vanier,509000,45.441936,-75.670975,176
"290 Paseo Private Ottawa, ON",Centrepointe,279900,45.342701,-75.764977,223
"#PH8 - 150 Caroline Avenue Ottawa, ON",Island Park,459000,45.399307,-75.734589,224
"301 Osgoode Street Ottawa, ON",Sandy Hill,749900,45.425793,-75.676636,225
"3 Pentry Lane Ottawa, ON",Old Ottawa South,490000,45.389938,-75.68399,226
"41 Courtney Road Kanata, ON",Kanata,329900,45.291538,-75.87384,138
"504 Khamsin Street Stittsville, ON",Stittsville,359900,45.287533,-75.914436,151
"417 Laurier Avenue Ottawa, ON",Sandy Hill,899000,45.428749,-75.675331,225
"263 Carillon Street Ottawa, ON",Vanier,399000,45.438011,-75.661713,176
"#1201 - 20 The Driveway Drive Ottawa, ON",Centretown,609000,45.419907,-75.684776,145
"#815 - 1599 Lassiter Terrace Ottawa, ON",Beacon Hill North,189900,45.450611,-75.597992,149
"385 Dominion Avenue Ottawa, ON",Westboro,636000,45.390965,-75.758957,227
"7 Dorland Crescent Ottawa, ON",Bells Corners East,439900,45.321457,-75.819595,228
"41 Langevin Avenue Ottawa, ON",Lindenlea - New Edinburgh,975000,45.442055,-75.674759,229
"33 Cloverloft Court Ottawa, ON",Stittsville,134900,45.278122,-75.915527,151
"#G - 1462 Heatherington Road Ottawa, ON",Ledbury - Heron Gate - Ridgemont - Elmwood,164900,45.374439,-75.650742,230
"138 Gatespark Private Ottawa, ON",Kanata,340000,45.316639,-75.924622,138
"1227 WELLINGTON STREET UNIT#403 Ottawa, ON",Byward Market - Parliament Hill,329900,45.423748,-75.697426,144
"200 RIDEAU STREET UNIT#1704 Ottawa, ON",Byward Market - Parliament Hill,649900,45.427555,-75.687782,144
"20 DUNVEGAN ROAD Ottawa, ON",Rockcliffe - Manor Park,599000,45.45393,-75.661484,231
"429 KENT STREET UNIT#116 Ottawa, ON",Centretown,255000,45.411434,-75.695801,145
"505 ST LAURENT BOULEVARD UNIT#615 Ottawa, ON",Rockcliffe - Manor Park,199900,45.443871,-75.64827,231
"1222 CASTLE HILL CRESCENT Ottawa, ON",Braemar Park - Bel Air Heights - Copeland Park,439900,45.364605,-75.74678,232
"496 NEWMAN AVENUE Ottawa, ON",Overbrook,519900,45.427731,-75.645607,233
"900 DYNES ROAD UNIT#1106 Ottawa, ON",Carleton Heights - Rideauview,194900,45.369511,-75.704407,234
"32 KINGS LANDING PRIVATE Ottawa, ON",Ottawa,689000,45.417107,-75.679268,137
"26 STATE STREET Ottawa, ON",Civic Hospital - Experimental Farm - Central Park,560000,45.368557,-75.738876,143
"1591 DIXIE STREET Ottawa, ON",Elmvale - Eastway - Riverview - Riverview Park West,485000,45.406857,-75.637115,195
"320 MCLEOD STREET UNIT#703 Ottawa, ON",Centretown,489900,45.412193,-75.691254,145
"690 ROANOKE STREET Ottawa, ON",Carson Grove - Carson Meadows,305000,45.443573,-75.628326,235
"3322 UPLANDS DRIVE UNIT#43 Ottawa, ON",Hunt Club East - Western Community,209900,45.34919,-75.674843,141
"244 CHARLOTTE STREET UNIT#2 Ottawa, ON",Sandy Hill,289900,45.430336,-75.674461,225
"28 SWAIN AVENUE Ottawa, ON",Hunt Club,439900,45.369469,-75.611755,236
"268 PRESLAND ROAD UNIT#5 Ottawa, ON",Overbrook,182000,45.423138,-75.654541,233
"1045 MORRISON DRIVE UNIT#158 Ottawa, ON",Qualicum - Redwood Park,209900,45.345119,-75.791946,237
"205 IVY CRESCENT Ottawa, ON",New Edinburgh,869000,45.440498,-75.679054,218
"319 SPENCER STREET Ottawa, ON",Island Park,469900,45.398674,-75.742767,224
"415 WILBROD STREET Ottawa, ON",Sandy Hill,1675000,45.429314,-75.676697,225
"2625 REGINA STREET UNIT#607 Ottawa, ON",Woodroffe - Lincoln Heights,174900,45.365734,-75.791367,238
"541 BRUNEL STREET Ottawa, ON",Ottawa,274000,45.448338,-75.631409,137
"60 SENECA STREET Ottawa, ON",Old Ottawa South,480000,45.39064,-75.689415,226
"69 AYLMER AVENUE Ottawa, ON",Old Ottawa South,599999,45.394081,-75.688263,226
"772 CHAPMAN MILLS DRIVE UNIT#A Ottawa, ON",New Barrhaven,209900,45.268684,-75.734024,150
"191 PORTRUSH AVENUE Ottawa, ON",New Barrhaven,339000,45.275246,-75.740662,150
"2760 CAROUSEL CRESCENT UNIT#1011 Ottawa, ON",Emerald Woods - Sawmill Creek,185000,45.35041,-75.643257,239
"33 WILDPINE COURT Ottawa, ON",Stittsville,289900,45.265881,-75.926804,151
"296 DALEHURST DRIVE UNIT#D Ottawa, ON",Tanglewood,209000,45.333309,-75.749748,240
"3691 ALBION ROAD UNIT#58 Ottawa, ON",Blossom Park - Blossom Park West - Sawmill Creek/ Timbermill,199900,45.348919,-75.637856,241
"3211 BANNON WAY Ottawa, ON",Blossom Park - Blossom Park West - Sawmill Creek/ Timbermill,159900,45.344788,-75.627975,241
"307 CENTERRA COURT Ottawa, ON",New Barrhaven,545000,45.242943,-75.729378,150
"3663 ALBION ROAD Ottawa, ON",Blossom Park - Blossom Park West - Sawmill Creek/ Timbermill,599000,45.349552,-75.640114,241
"1276 HOWIE ROAD Ottawa, ON",Carp,159000,45.281017,-76.071915,154
"#15 - 2112 Queen St Toronto, ON",The Beach,569000,43.671459,-79.295059,53
"1 Currie Ave Toronto, ON",East Danforth,689900,43.68047,-79.321823,108
"#3010 - 12 York St Toronto, ON",Downtown,499000,43.641632,-79.38205,4
"80 Martindale Rd Toronto, ON",Cliffcrest,699900,43.734875,-79.22728,135
"61 Rory Rd Toronto, ON",Maple Leaf,799000,43.720276,-79.484901,202
"26 Angora St Toronto, ON",Woburn,525000,43.758507,-79.212791,25
"35 Strathcona Ave Toronto, ON",Riverdale,899000,43.675503,-79.344292,76
"39 Belleville St Toronto, ON",Upper Beaches,899900,43.686844,-79.290771,201
"#92 - 100 Burrows Hall Blvd Toronto, ON",Malvern,379900,43.792198,-79.232147,28
"49 Caracas Rd Toronto, ON",Bayview Village,1050000,43.767426,-79.37751,57
"##1 - 108 Redpath Ave Toronto, ON",Midtown Toronto,549000,43.707161,-79.393127,13
"#S608 - 455 Front St Toronto, ON",Downtown,374900,43.652714,-79.3563,4
"29 Bromton Dr Toronto, ON",Bendale,499900,43.765526,-79.253128,58
"135 King St Toronto, ON",Downtown,748888,43.65004,-79.373352,4
"#1006 - 2 Anndale Dr Toronto, ON",Willowdale,419900,43.760464,-79.410248,32
"2043 SPRINGDALE RD Oakville, ON",Westmount,868800,43.44273,-79.752754,106
"#510 - 25 FAIRVIEW RD W Mississauga, ON",Mississauga,209900,43.587418,-79.628464,242
"2768 WESTBURY CRT Mississauga, ON",Erin Mills,684900,43.563698,-79.730011,243
"2150 BURNHAMTHORPE RD W Mississauga, ON",Erin Mills,129000,43.543655,-79.68306,243
"609 Driftcurrent Drive Mississauga, ON",Mississauga,950000,43.622925,-79.646111,242
"7554 LOCKINGTON CRES Mississauga, ON",Malton,649900,43.727547,-79.643188,244
"3342 GRECHEN RD Mississauga, ON",Mississauga,575000,43.564972,-79.650948,242
"1130 SYLVANIA DR Mississauga, ON",Dixie,629900,43.609303,-79.597534,245
"738 GREENORE RD Mississauga, ON",Mississauga,729900,43.606991,-79.615433,242
"6613 JAZZY MEWS Mississauga, ON",Meadowvale Village,609900,43.619102,-79.714088,246
"1591 SAMUELSON CIRC Mississauga, ON",Meadowvale Village,819000,43.622822,-79.748672,246
"2393 CHILSWORTHY AVE Mississauga, ON",Cooksville,825000,43.563198,-79.624519,247
"1607 Spring Road Mississauga, ON",Clarkson,4288000,43.524624,-79.625351,248
"609 DRIFTCURRENT DR Mississauga, ON",Mississauga,950000,43.622925,-79.646111,242
"2180 DIXIE RD Mississauga, ON",Lakeview,1049700,43.601135,-79.572868,249
"#83 - 6797 FORMENTERA AVE Mississauga, ON",Mississauga,319900,43.585991,-79.762466,242
"#111 - 55 BRISTOL RD E Mississauga, ON",Mississauga,249800,43.616287,-79.664009,242
"5353 GLEN ERIN DR Mississauga, ON",Erin Mills,1298000,43.561249,-79.72094,243
"#1008 - 20 MISSISSAUGA VALL BLVD Mississauga, ON",Mississauga,328888,43.590103,-79.627022,242
"##11 - 242 John Garland Blvd Toronto, ON",Rexdale,195900,43.73354,-79.592949,23
"#108 - 35 HAYDEN ST Toronto, ON",Downtown,649900,43.669609,-79.384773,4
"435 MAYBANK AVE Toronto, ON",Harwood,699400,43.677654,-79.473663,250
"#562 - 209 FORT YORK BLVD S Toronto, ON",Niagara,349000,43.636963,-79.404671,54
"39 FAIRLEIGH CRES Toronto, ON",Midtown Toronto,1299000,43.700653,-79.439201,13
"1805 SUMAC WY London, ON",River Bend,599900,42.964138,-81.358253,251
"57 - 490 THIRD Street London, ON",Argyle,123000,43.005676,-81.186676,159
"1506 MCLARENWOOD TR London, ON",East London,209900,42.987186,-81.185242,252
"1004 GUILDWOOD BL London, ON",Oakridge,389000,42.978428,-81.313164,155
"183 LANGARTH Street East London, ON",South London,549900,42.965721,-81.250999,253
"301 WOODROW Place Waterloo, ON",Laurelwood,589000,43.469215,-80.583534,166
"5 Michelle Court Kitchener, ON",Highland West,369900,43.425808,-80.546333,177
"114 Roebuck Dr Toronto, ON",Kennedy Park,628000,43.726383,-79.270432,22
"3369 Weston Rd Toronto, ON",Emery,569900,43.745125,-79.540535,123
"41 DONALD BELL DR Hamilton, ON",Hamilton,389900,43.120533,-79.807396,34
"#110 - 86 JOYMAR DR Mississauga, ON",Streetsville,529900,43.578716,-79.71743,254
"825 Cavan Crt Oshawa, ON",Vanier,329900,43.887722,-78.892616,176
"1516 Pennel Dr Oshawa, ON",Taunton,475000,43.944332,-78.856514,255
"61 Don Head Village Blvd Richmond Hill, ON",Richmond Hill,739000,43.864326,-79.450706,256
"25 Brower Ave Richmond Hill, ON",Richmond Hill,1199888,43.925968,-79.45578,256
"10165 Yonge St Richmond Hill, ON",Richmond Hill,89000,43.875378,-79.437729,256
"#41 - 9130 Bathurst Ave Vaughan, ON",Maple,999990,43.845722,-79.45845,257
"285 Gells Rd Richmond Hill, ON",Richmond Hill,999900,43.892128,-79.428207,256
"64 Lebovic Dr Richmond Hill, ON",Richmond Hill,739000,43.93924,-79.442604,256
"61 Sun Valley Dr Richmond Hill, ON",Richmond Hill,1190000,43.887222,-79.39534,256
"46 Falling River Dr Richmond Hill, ON",Richmond Hill,988000,43.908413,-79.43763,256
"240 Avenue Rd Richmond Hill, ON",Richmond Hill,668000,43.856258,-79.443405,256
"145 Kimono Cres Richmond Hill, ON",Richmond Hill,888000,43.878567,-79.403717,256
"17 Alyssum Crt Richmond Hill, ON",Richmond Hill,1249900,43.953888,-79.44149,256
"62 Bush Ridges Ave Richmond Hill, ON",Richmond Hill,1199000,43.91674,-79.430244,256
"372 Balkan Rd Richmond Hill, ON",Richmond Hill,1199000,43.882725,-79.42205,256
"29 Camellia Dr Richmond Hill, ON",Bayview Glen,1199900,43.84557,-79.413292,258
"37 Bingham St Richmond Hill, ON",Richmond Hill,888888,43.865139,-79.442482,256
"53 Steepleview Cres Richmond Hill, ON",Richmond Hill,668000,43.866974,-79.443512,256
"56 Selkirk Dr Richmond Hill, ON",Bayview Glen,895800,43.846828,-79.423927,258
"187 Jefferson Forest Dr Richmond Hill, ON",Richmond Hill,1420000,43.915451,-79.433235,256
"32 Selleck Drive Richmond Hill, ON",Richmond Hill,1695000,43.935452,-79.46936,256
"61 Catalina Cres Richmond Hill, ON",Richmond Hill,1649000,43.890335,-79.416885,256
"121 Devonsleigh Blvd Richmond Hill, ON",Richmond Hill,1380000,43.90464,-79.435066,256
"#514 - 33 Weldrick Rd Richmond Hill, ON",Richmond Hill,579888,43.8605,-79.433083,256
"#906 - 9088 Yonge St Richmond Hill, ON",Richmond Hill,335000,43.848576,-79.432541,256
"88 Maple Grove Ave Richmond Hill, ON",Richmond Hill,3180000,43.945827,-79.468925,256
"22 Ellesmere St Richmond Hill, ON",Bayview Glen,810000,43.847469,-79.430588,258
"170 ELDER ST Toronto, ON",Bathurst Manor,998000,43.758739,-79.452705,259
"104 Homedale Dr Toronto, ON",Milliken,699900,43.81181,-79.282883,30
"14 Saunders Rd Toronto, ON",Scarborough Village,698000,43.748539,-79.208725,206
"99 Red River Cres Toronto, ON",Rouge,465000,43.80365,-79.172356,80
"10 Sudbury Hall Dr Toronto, ON",Rouge,599000,43.800362,-79.177345,80
"2185 HAMELIN CRESCENT Ottawa, ON",Greenbelt,429900,45.454403,-75.591789,148
"6 GERALD Crescent London, ON",Glen Cairn,174900,42.966042,-81.200066,260
"7467 Monastery Drive Niagara Falls, ON",Niagara Falls,344900,43.120461,-79.123039,163
"286 Whitmore Drive Waterloo, ON",Waterloo,629900,43.496555,-80.509979,164
"45 Ellis Crescent N Waterloo, ON",Waterloo,275000,43.472687,-80.50795,164
"233 Rodney Street Waterloo, ON",Waterloo,299000,43.467121,-80.502708,164
"E31 110 ACTIVA Avenue Kitchener, ON",Laurentian West,339900,43.408806,-80.510376,169
"149 ACTIVA Avenue Kitchener, ON",Laurentian West,319900,43.40818,-80.511421,169
"191 SHERMAN AVE N Hamilton, ON",Gibson,229000,43.257683,-79.835777,261
"11 Bronte Road Oakville, ON",Bronte,1950,43.394123,-79.708611,105
"#115 - 5980 Whitehorn Ave Mississauga, ON",East Credit,519900,43.598038,-79.708839,262
"6271 Snowflake Lane Mississauga, ON",Mississauga,729900,43.568523,-79.758461,242
"3910 MILKWOOD CRES Mississauga, ON",Mississauga,570000,43.580254,-79.79258,242
"5188 ANGEL STONE DR Mississauga, ON",Erin Mills,699900,43.550816,-79.723541,243
"1331 SCUGOG AVE Oshawa, ON",Lakeview,489900,43.863235,-78.844627,249
"771 CHAMBERLAIN Street Peterborough, ON",Peterborough,199900,44.289719,-78.338554,263
"246 TOBIN Court Peterborough, ON",Peterborough,324900,44.332214,-78.331535,263
"146 JAMES Street Peterborough, ON",Peterborough,299900,44.302681,-78.305908,263
"15 PACIFIC RIM CRT Richmond Hill, ON",Richmond Hill,599000,43.910572,-79.472374,256
"9 Red River Cres Toronto, ON",Rouge,439000,43.802834,-79.172585,80
"82 PITT AVE Toronto, ON",Clairlea - Birchmount,799900,43.704266,-79.293152,212
"227 REINER Road Toronto, ON",Wilson Heights,1399990,43.748856,-79.453499,31
"# 74 - 20 BRIMWOOD BLVD Toronto, ON",Milliken,429000,43.811077,-79.279678,30
"80 VALLEY STREAM DR Toronto, ON",Toronto,688000,43.820442,-79.263741,67
"93 Langstrom Crescent Ottawa, ON",Hunt Club,305000,45.37384,-75.621559,236
"267 NORTHCREST Place Waterloo, ON",Waterloo,350000,43.482021,-80.513992,164
"99 English Oak Dr Richmond Hill, ON",Richmond Hill,788000,43.940819,-79.442017,256
"108 Arten Ave Richmond Hill, ON",Richmond Hill,1980000,43.886921,-79.449402,256
"82 SUN ROW DR Toronto, ON",Richview,908800,43.687252,-79.539108,0
"246 Parklawn Place Waterloo, ON",Waterloo,419900,43.490467,-80.553566,164
"237 Pastern Trail Waterloo, ON",Waterloo,394900,43.490166,-80.486526,164
"139 Wilson Rd Oshawa, ON",Eastdale,299900,43.905834,-78.845314,264
"7 RESTEVER GATE Toronto, ON",Rexdale,609900,43.727604,-79.564903,23
"135 CEDRIC AVE Toronto, ON",Midtown Toronto,1179000,43.687832,-79.436775,13
"#813 - 3 Rean Dr Toronto, ON",Bayview Village,312900,43.765289,-79.382339,57
"#1722 - 230 Queens Quay Toronto, ON",Downtown,389900,43.639381,-79.384064,4
"539 Golfview Court Oakville, ON",Oakville,1798800,43.452374,-79.724609,44
"1081 FOLEY AVENUE Ottawa, ON",Elmvale - Eastway - Riverview - Riverview Park West,379000,45.390419,-75.618919,195
"173 GUIGUES AVENUE Ottawa, ON",Byward Market - Parliament Hill,355000,45.432209,-75.692116,144
"124 BREEZEHILL AVENUE Ottawa, ON",Ottawa,629900,45.404568,-75.718109,137
"1380 PRINCE OF WALES DRIVE UNIT#1605 Ottawa, ON",Carleton Heights - Rideauview,185000,45.369625,-75.703011,234
"6075 VOYAGEUR DRIVE Ottawa, ON",Orlans,424900,45.474716,-75.557007,265
"2020 JASMINE CRESCENT UNIT#1402 Ottawa, ON",Beacon Hill South - Cardinal Heights,145000,45.439869,-75.593658,266
"3256 RIVER ROAD Ottawa, ON",Manotick,498000,45.132607,-75.632965,267
"10 ROCK FOREST ROAD Ottawa, ON",Dunrobin,150000,45.483822,-76.03981,268
"325 FRONTENAC AVENUE Ottawa, ON",Vanier,259000,45.434868,-75.65583,176
"436 STALWART CRESCENT Ottawa, ON",Greenbelt,379900,45.324295,-75.598969,148
"155 TARTAN DRIVE Ottawa, ON",Barrhaven West - Old Barrhaven,289900,45.264072,-75.763573,222
"1870 ROSEBELLA AVENUE Ottawa, ON",Blossom Park - Blossom Park West - Sawmill Creek/ Timbermill,649000,45.351925,-75.618378,241
"35 SOUTHLAND CRESCENT Ottawa, ON",Hunt Club,489000,45.371628,-75.619003,236
"511 PAUL METIVIER DRIVE Ottawa, ON",New Barrhaven,374900,45.269489,-75.721519,150
"1546 BEAVERPOND DRIVE UNIT#104 Ottawa, ON",Pineview,186900,45.423027,-75.598518,269
"262 LAVERGNE STREET Ottawa, ON",Vanier,325000,45.441925,-75.6605,176
"44 EAGLEVIEW STREET Kanata, ON",Kanata,274900,45.278862,-75.853737,138
"1791 MAPLE GROVE ROAD Kanata, ON",Stittsville,265000,45.288254,-75.921722,151
"41 COURTNEY ROAD Kanata, ON",Kanata,329900,45.291538,-75.87384,138
"730 BOWERCREST CRESCENT Gloucester, ON",Ottawa,349000,45.281384,-75.677872,137
"40 NEPEAN STREET UNIT#2306 Ottawa, ON",Ottawa,369000,45.419292,-75.693321,137
"429 DIVISION STREET Ottawa, ON",Arnprior,1400000,45.430016,-76.382179,270
"LOT 15 HWY 7 ROAD Ottawa, ON",Dunrobin,99000,45.493942,-76.196617,268
"6588 RALEIGH BL London, ON",Talbot,385900,42.935291,-81.306831,271
"102 MEG DR London, ON",Westminster,850000,42.921112,-81.230392,272
"37 - 410 AMBLESIDE Drive London, ON",Masonville,1650,43.020145,-81.300865,162
"579 JEFFREYBROOK Drive London, ON",Uplands,429900,43.035526,-81.261818,273
"7001 Whitman Avenue Niagara Falls, ON",Niagara Falls,239000,43.073814,-79.102875,163
"25 5490 PRINCE EDWARD Avenue Niagara Falls, ON",Niagara Falls,317500,43.094559,-79.106125,163
"203 4872 VALLEY WAY . Niagara Falls, ON",Niagara Falls,109900,43.103577,-79.074303,163
"7785 Mulhern Street Niagara Falls, ON",Niagara Falls,199999,43.105556,-79.127815,163
"5828 Ferry Street Niagara Falls, ON",Niagara Falls,499000,43.089321,-79.091484,163
"6566 DOREEN Drive Niagara Falls, ON",Niagara Falls,269900,43.106136,-79.105293,163
"645 Violet Street Waterloo, ON",Waterloo,399900,43.469292,-80.599823,164
"335 Northlake Drive Waterloo, ON",Waterloo,159000,43.501736,-80.554558,164
"30 375 KINGSCOURT Drive Waterloo, ON",Waterloo,290000,43.496464,-80.52253,164
"25 Liberty Avenue Kitchener, ON",Auditorium,335000,43.449638,-80.469513,274
"81 Morgan Avenue Kitchener, ON",Centreville Chicopee,249900,43.429859,-80.431648,175
"267 Morrison Road Kitchener, ON",Centreville Chicopee,379900,43.430744,-80.416313,175
"15 Blucher Street Kitchener, ON",Mount Hope Huron Park,289900,43.460251,-80.499298,275
"754 Bleams Road Kitchener, ON",Kitchener,194900,43.407032,-80.474335,276
"7 Upper Mercer Drive Kitchener, ON",Grand River South,319900,43.446491,-80.406723,87
"54 Milson Cres Guelph, ON",Kortright Hills,535000,43.500637,-80.229118,99
"45 Geddes Crescent Guelph, ON",Guelph,649900,43.513851,-80.209908,91
"8 MALVERN Crescent Guelph, ON",Guelph,559900,43.515121,-80.195892,91
"177 Milson Drive Guelph, ON",Kortright Hills,624999,43.498695,-80.229836,99
"15 WILKIE CRES Guelph, ON",Guelph,525000,43.507942,-80.180771,91
"459 Charlton Ave Hamilton, ON",Kirkendall North,298000,43.254723,-79.893707,277
"50 GREEN MOUNTAIN RD Hamilton, ON",Stoney Creek,8050000,43.198563,-79.763313,278
"30 FOXMEADOW Drive Stoney Creek, ON",Stoney Creek,429900,43.177826,-79.781067,278
"2432 Baxter Cres Burlington, ON",Burlington,748800,43.385357,-79.827148,100
"104 E - 216 PLAINS Road West Burlington, ON",Aldershot,365000,43.301445,-79.859093,101
"1442 Cobbler Lane Oakville, ON",Glen Abbey,728800,43.430691,-79.744545,43
"1377 ACTON Crescent Oakville, ON",Oakville,1350000,43.473747,-79.660568,44
"2378 Brookhurst Dr Mississauga, ON",Mississauga,525000,43.50983,-79.64267,242
"5655 River Grove Ave Mississauga, ON",East Credit,879900,43.587467,-79.705734,262
"4580 Inverness Blvd Mississauga, ON",East Credit,999600,43.572617,-79.687866,262
"#117 - 6540 Falconer Dr Mississauga, ON",Streetsville,339900,43.604027,-79.731079,254
"1136 Baldwin Rd Mississauga, ON",Lakeview,699000,43.595562,-79.580551,249
"#1201 - 530 LOLITA GDNS Mississauga, ON",Mississauga,269900,43.592449,-79.605553,242
"2888 SAINT MALO Circle Mississauga, ON",Mississauga,659900,43.586689,-79.765297,242
"1142 LOWER VILLAGE CRES Mississauga, ON",Lakeview,499900,43.573025,-79.569595,249
"2785 CATHIAN CRT Mississauga, ON",Erin Mills,719900,43.541542,-79.695732,243
"1051 OLD DERRY RD Mississauga, ON",Meadowvale Village,1300000,43.625961,-79.729195,246
"882 Renaissance Dr Oshawa, ON",Lakeview,389900,43.857136,-78.859825,249
"553 Camelot Dr Oshawa, ON",Eastdale,329900,43.917343,-78.847054,264
"600 Whistler Dr Oshawa, ON",Northglen,559900,43.908775,-78.905251,279
"1938 ROCKCREEK DR Oshawa, ON",Samac,749900,43.951542,-78.866486,280
"88 Greenbank Dr Richmond Hill, ON",Richmond Hill,1195000,43.910522,-79.454201,256
"107 Cartier Cres Richmond Hill, ON",Richmond Hill,1198000,43.882359,-79.418533,256
"251 Frank Endean Rd Richmond Hill, ON",Richmond Hill,1388000,43.888855,-79.414459,256
"15 Carousel Cres Richmond Hill, ON",Richmond Hill,759000,43.940556,-79.452339,256
"12 LANGHORST CRES Richmond Hill, ON",Richmond Hill,1298000,43.921391,-79.459763,256
"#711 - 6 Eva Rd Toronto, ON",Eatonville,289900,43.640301,-79.562302,130
"39 Stainforth Dr Toronto, ON",Agincourt,868888,43.794025,-79.285156,19
"33 BALDWIN ST Toronto, ON",Downtown,1699000,43.655937,-79.393402,4
"1404 25 Carlton Street Toronto, ON",Downtown,539900,43.661045,-79.38166,4
"127 WEIR CRES Toronto, ON",West Hill,675000,43.773659,-79.196533,68
"60 IGNATIUS LANE Toronto, ON",West Hill,469500,43.765007,-79.19281,68
"159 GOULDING AVE Toronto, ON",Newtonbrook,1599000,43.789005,-79.432106,49
"19 LILY CUP AVE Toronto, ON",Clairlea - Birchmount,629000,43.702591,-79.272026,212
